     4.01           OBSERVATION DATA    M                   RINEX VERSION / TYPE
GnssLogger          Google 14           20241027 145154 UTC PGM / RUN BY / DATE
Google GnssLogger                                           MARKER NAME
Unknown                                                     MARKER NUMBER
Unknown             Unknown                                 OBSERVER / AGENCY
Unknown             GnssLogger          v3.1.0.3            REC # / TYPE / VERS
Unknown             Unknown                                 ANT # / TYPE
        0.0000        0.0000        0.0000                  ANTENNA: DELTA H/E/N
G    4 C1C L1C D1C S1C                                      SYS / # / OBS TYPES
R    4 C1C L1C D1C S1C                                      SYS / # / OBS TYPES
E    4 C1C L1C D1C S1C                                      SYS / # / OBS TYPES
  2024    10    27    14    51   54.0000000     GPS         TIME OF FIRST OBS
 9 R01  1 R02 -4 R08  6 R10 -7 R11  0 R12 -1 R17  4 R18 -3  GLONASS SLOT / FRQ #
   R24  2                                                   GLONASS SLOT / FRQ #
Google Pixel 6a (Android 14) HW Year: 2020 HW Model:        COMMENT
Broadcom, BCM4776, GLL ver. 154.20.24 587347                COMMENT
                                                            END OF HEADER
> 2024 10 27 14 51 54.9996297  0 21                      
G08  25051680.38325   -347749.79825     -2481.22925        30.98025
G10  20876173.12625     76756.19725       523.75925        31.84725
G15  24492541.06723   -616812.65223     -4410.44323        23.35523
G21  24898893.55526    220854.00426      1536.29526        37.22626
G23  20460202.39723   -277066.74423     -1993.14223        18.80023
G24  21439669.92525   -414148.55125     -2962.69725        29.95625
G28  24901157.28824    399087.45024      2858.57624        24.15624
G32  21890679.49827    124020.35127       857.93427        41.54127
R10  22965814.69724   -443635.69824     -3179.91624        29.42824
R02  20698132.38125     94437.76525       656.48225        31.19625
R18  22932259.22726    312534.34726      2173.40826        38.42526
R12  23250231.99925    449575.31725      3177.47325        29.64125
R11  21333417.18325     83228.15425       532.94825        32.30825
R01  19949050.26022   -283980.92522     -2042.42322        15.92422
R24  21526039.53326   -668036.67926     -4733.56726        39.59926
R17  20540317.43426   -138025.90626     -1037.96326        36.45426
R08  23619102.33622   -544853.71922     -3977.45422        16.14822
E03  24530532.56624   -378809.67224     -2704.71424        26.89824
E07  26798034.40725    178531.13625      1263.69125        31.00925
E15  24904325.79423   -492628.44323     -3528.72723        22.73623
E25  27727014.48723    119983.68023       860.12123        22.67723
> 2024 10 27 14 51 55.9996290  0 21                      
G08  25051937.90425   -350233.96525     -2483.23225        30.73925
G10  20875862.54125     77279.13225       523.53025        30.81725
G15  24493162.83624   -621226.25924     -4410.90624        23.95424
G21  24898389.00426    222391.70326      1535.93226        36.78426
G23  20460372.97922   -279055.58622     -1994.54822        13.46822
G24  21440027.87825   -417112.06325     -2964.37925        29.79125
G28  24900400.61123    401942.49923      2859.51923        23.38523
G32  21890305.65726    124877.72226       857.61626        40.78826
R10  22966207.72525   -446813.31025     -3180.75125        30.44625
R02  20697801.71025     95093.09425       655.62725        30.77925
R18  22931642.85426    314708.56226      2174.22926        38.37726
R12  23249422.85924    452751.84024      3176.16224        29.41324
R11  21333108.09725     83760.97425       533.15125        32.38825
R01  19949211.24823   -286022.50123     -2043.40023        18.29023
R24  21526725.15826   -672770.12526     -4731.73726        39.29526
R17  20540296.74826   -139064.71626     -1039.81426        36.08726
R08  23619638.96423   -548825.65423     -3977.21523        17.96623
E03  24530838.65424   -381514.94424     -2705.98224        24.71224
E07  26797583.81925    179795.56525      1263.53625        30.78925
E15  24904785.67623   -496163.14123     -3529.54923        22.20223
E25  27726638.24823    120843.76723       860.52223        22.82523
> 2024 10 27 14 51 56.9996284  0 20                      
G08  25052234.09925   -352719.11125     -2484.53825        30.96025
G10  20875578.93725     77801.43425       522.47125        31.04925
G15  24493820.28124   -625638.23724     -4410.94224        24.65324
G21  24897920.12926    223930.23426      1539.29126        36.84526
G23  20460579.83522   -281071.22722     -1993.39722        13.62322
G24  21440414.91025   -420076.66025     -2964.93525        30.42025
G28  24899672.41524    404801.65824      2856.53524        24.08524
G32  21889959.09726    125734.83526       857.26226        40.93926
R10  22966629.83325   -449990.25825     -3181.79925        30.87825
R02  20697495.32225     95747.65625       655.03025        31.26325
R18  22931046.56726    316882.13926      2174.82626        38.38526
R12  23248651.49325    455927.45825      3175.90825        30.05025
R11  21332839.78225     84293.13525       532.85225        32.59225
R01  19949420.80322   -288065.84822     -2043.40622        16.84022
R24  21527432.66826   -677505.23526     -4735.58926        39.64326
R17  20540314.43626   -140104.90726     -1041.14126        36.71926
E03  24531178.61824   -384220.59024     -2706.45324        24.05824
E07  26797162.01125    181059.06225      1263.58725        31.14325
E15  24905278.83423   -499702.69923     -3529.70823        19.91023
E25  27726294.98524    121702.97924       859.63524        24.31224
> 2024 10 27 14 51 57.9996278  0 21                      
G08  25052531.19425   -355204.77025     -2484.50825        30.40225
G10  20875305.52725     78322.16825       519.86425        31.10625
G15  24494484.62124   -630052.06924     -4410.56424        24.16824
G21  24897447.05626    225469.24326      1540.10026        36.77826
G23  20460780.39622   -283065.88122     -1994.55522        15.56422
G24  21440805.53925   -423041.22125     -2964.25125        30.30625
G28  24898949.61623    407660.59023      2855.88423        23.47023
G32  21889617.03326    126590.93126       855.90326        40.37226
R10  22967053.44024   -453172.06524     -3180.81724        28.79124
R02  20697203.02525     96401.69425       653.70825        31.07025
R18  22930463.77026    319055.49626      2175.25526        37.30326
R12  23247873.23224    459103.52424      3176.39024        29.13724
R11  21332558.27725     84824.52225       532.29225        32.39025
R01  19949618.96622   -290109.10122     -2042.98822        16.86422
R24  21528142.57726   -682241.81726     -4737.10226        40.14226
R17  20540336.32126   -141146.20126     -1041.89826        36.89826
R08  23620830.04022   -556780.41122     -3977.24822        13.54922
E03  24531512.58724   -386926.23324     -2706.74224        23.94324
E07  26796740.20325    182322.51625      1263.57925        30.00425
E15  24905769.59423   -503241.67223     -3529.79623        19.65823
E25  27725950.82423    122562.33323       859.27023        21.72323
> 2024 10 27 14 51 58.9996271  0 21                      
G08  25052787.81625   -357690.61925     -2485.17725        30.03125
G10  20874994.94225     78842.93325       520.53425        32.45525
G15  24495118.38224   -634463.59324     -4410.52124        24.33224
G21  24896944.00426    227006.69626      1537.86126        37.60826
G23  20460957.57423   -285060.47523     -1994.55523        17.76423
G24  21441158.39525   -426006.27725     -2964.57825        30.76925
G28  24898197.73624    410518.64524      2855.56024        24.51024
G32  21889244.69126    127446.97526       856.21426        40.70826
R10  22967444.66924   -456354.52024     -3180.80724        28.29424
R02  20696867.55725     97055.48325       652.85225        32.24725
R18  22929842.90026    321227.87726      2172.83726        37.82926
R12  23247057.79724    462279.59124      3176.49924        28.57424
R11  21332243.49525     85355.09425       530.87225        32.78525
R01  19949790.74723   -292152.20423     -2040.74523        17.63823
R24  21528824.00526   -686978.82326     -4737.53326        40.48426
R17  20540322.83026   -142188.28126     -1042.30026        36.68926
R08  23621301.31324   -560781.71524     -3978.04524        24.79724
E03  24531812.67924   -389631.96424     -2706.69424        24.34524
E07  26796288.41624    183586.07524      1263.49724        29.25024
E15  24906231.87423   -506772.25923     -3530.10723        23.16423
E25  27725574.88423    123421.83023       859.37323        21.90023
> 2024 10 27 14 51 59.9996265  0 21                      
G08  25053084.31125   -360176.87025     -2485.71525        30.56725
G10  20874712.83725     79364.33225       521.53225        31.51425
G15  24495775.82724   -638874.45824     -4411.39124        24.92224
G21  24896468.53326    228543.52126      1536.04826        38.17526
G23  20461153.63822   -287054.81322     -1994.55522        17.03122
G24  21441544.82725   -428972.20125     -2965.75225        31.93325
G28  24897476.73624    413375.86624      2855.08124        24.68224
G32  21888903.82726    128302.94226       855.84126        41.02126
R10  22967863.47924   -459537.49024     -3181.67424        29.10924
R02  20696565.96625     97708.96125       652.83125        31.94325
R18  22929262.80226    323399.61426      2172.08326        37.83026
R12  23246272.34124    465455.70624      3176.48824        27.89224
R11  21331953.29625     85884.61425       529.24225        32.54225
R01  19949950.23722   -294196.69122     -2041.62722        17.06422
R24  21529534.81326   -691714.73626     -4734.69726        40.44326
R17  20540339.61926   -143230.56026     -1042.29026        36.49526
R08  23621875.41623   -564760.01523     -3978.74823        23.15523
E03  24532150.24623   -392343.20423     -2706.08223        22.63623
E07  26795863.31025    184849.96225      1263.48825        30.39125
E15  24906722.93523   -510302.45523     -3529.59323        21.51623
E25  27725230.12323    124280.91823       859.24923        20.78623
> 2024 10 27 14 52 00.9996259  0 18                      
G08  25053378.70725   -362663.23125     -2485.64825        29.94425
G10  20874431.63225     79886.21525       522.79725        30.00925
G15  24496426.67724   -643283.55924     -4410.89324        24.20424
G21  24895994.86126    230081.93326      1540.08026        36.65526
G24  21441926.46325   -431938.38425     -2966.37725        30.42125
G28  24896753.03723    416231.66223      2854.52623        22.88123
G32  21888559.66526    129158.69326       854.65426        39.73426
R10  22968274.19525   -462722.03125     -3185.93725        29.72925
R02  20696263.17525     98362.49425       652.02025        31.29925
R18  22928671.31126    325570.86026      2171.13126        37.44626
R12  23245518.36324    468632.10124      3176.44024        28.62724
R11  21331677.48725     86413.33625       528.80225        32.12525
R24  21530240.22526   -696450.82326     -4735.46926        39.11426
R17  20540344.11626   -144273.31726     -1043.15326        36.01526
R08  23622451.61723   -568736.69423     -3976.27223        22.83323
E03  24532488.41223   -395058.34723     -2705.38623        18.74023
E07  26795440.30324    186113.65324      1263.80924        29.46924
E25  27724887.76023    125139.15523       858.61723        20.98623
> 2024 10 27 14 52 01.9996252  0 20                      
G08  25053640.42624   -365148.81324     -2484.45724        29.17524
G10  20874122.54625     80408.05325       522.84925        30.11025
G15  24497067.33324   -647689.75324     -4411.37524        24.78124
G21  24895489.71126    231622.03726      1544.46526        36.10626
G24  21442276.92124   -434904.46924     -2965.92124        29.49124
G28  24896000.25823    419086.80323      2855.04923        22.09723
G32  21888184.92526    130014.38826       855.29026        40.25026
R10  22968667.52225   -465908.04925     -3187.66725        30.21025
R02  20695940.59825     99016.10725       653.11625        30.43125
R18  22928050.74126    327740.66126      2168.51926        37.32526
R12  23244722.41424    471808.39624      3177.04324        27.99324
R11  21331365.40325     86941.27425       527.28125        30.92725
R01  19950344.46422   -298303.70522     -2040.75122        16.71222
R24  21530915.95726   -701188.37526     -4738.68826        38.57926
R17  20540335.72125   -145317.24225     -1044.06325        35.29825
R08  23623002.63623   -572707.97223     -3975.56823        19.25823
E03  24532792.10123   -397764.02223     -2705.48023        20.27323
E07  26794989.71525    187377.80225      1264.06025        29.60025
E15  24907677.77323   -517363.84223     -3530.22123        20.64823
E25  27724512.71923    125997.47223       858.84123        21.81223
> 2024 10 27 14 52 02.9996245  0 20                      
G08  25053930.02524   -367635.29424     -2486.22324        29.36824
G10  20873846.73725     80929.42525       521.63025        32.07325
G15  24497731.67324   -652100.43524     -4411.48424        26.63724
G21  24895022.93426    233161.55926      1542.21226        37.90526
G24  21442661.85425   -437871.42625     -2967.55025        30.07725
G28  24895279.55724    421941.94324      2855.13224        23.67524
G32  21887843.46126    130870.39626       854.96826        41.20126
R10  22969096.82524   -469094.56224     -3187.41824        28.94024
R02  20695628.51525     99670.41225       654.72725        32.20225
R18  22927473.04126    329910.76626      2169.68626        37.36026
R12  23243961.24024    474987.78524      3178.92924        27.33724
R11  21331084.49725     87468.54225       527.24225        31.43325
R01  19950562.41323   -300344.40923     -2040.75123        17.96823
R24  21531621.96826   -705925.41526     -4736.36326        39.73526
R17  20540345.01526   -146361.53026     -1044.27026        35.70026
R08  23623558.75124   -576679.65124     -3973.88324        26.33624
E03  24533129.66823   -400469.20623     -2705.35023        19.65623
E07  26794568.80624    188641.78924      1264.36924        29.17524
E15  24908169.73323   -520894.67023     -3530.61723        23.26723
E25  27724167.05923    126855.45123       858.54423        22.60923
> 2024 10 27 14 52 03.9996240  0 19                      
G08  25054229.51825   -370122.31725     -2487.63525        29.92525
G10  20873568.82925     81450.40225       521.22325        32.75125
G15  24498396.91324   -656511.38024     -4413.13124        27.26824
G21  24894550.16226    234698.47726      1535.80626        38.47026
G24  21443047.98725   -440839.10725     -2968.81125        31.66325
G28  24894558.55624    424797.24124      2854.59024        24.58324
G32  21887503.49726    131726.00926       855.34926        41.46526
R10  22969508.74024   -472280.96124     -3187.63224        28.96324
R02  20695329.02225    100324.72325       653.86225        33.28225
R18  22926883.94926    332081.43126      2171.47926        38.43226
R12  23243179.98124    478167.31224      3177.20124        26.52324
R11  21330801.19425     87995.66425       527.32025        32.46625
R24  21532317.48726   -710662.12326     -4735.63326        40.29426
R17  20540360.30426   -147406.08926     -1044.23726        36.60426
R08  23624116.36524   -580654.47724     -3976.06924        26.62424
E03  24533465.43523   -403216.26023     -2704.36123        22.58923
E07  26794146.99824    189905.80024      1264.55024        28.99124
E15  24908660.79323   -524425.40623     -3530.68323        18.95223
E25  27723821.99723    127713.56223       858.86323        22.24623
> 2024 10 27 14 52 04.9996233  0 20                      
G08  25054496.63325   -372609.48725     -2486.70225        30.81125
G10  20873262.74125     81971.25425       520.50025        32.22425
G15  24499024.67824   -660918.83524     -4408.57024        28.17624
G21  24894045.61126    236235.63826      1536.96626        37.99826
G24  21443407.13825   -443807.87625     -2969.92825        32.12325
G28  24893806.97623    427652.60223      2854.98123        22.68023
G32  21887129.05626    132582.00726       856.39226        41.45326
R10  22969903.26724   -475467.45924     -3186.76124        28.65624
R02  20694996.55225    100978.52725       653.39825        31.44725
R18  22926266.67626    334251.14426      2169.18026        36.85226
R12  23242367.84424    481347.87624      3175.76124        26.89724
R11  21330500.50225     88522.54425       527.36425        32.51325
R24  21532986.32426   -715399.10426     -4736.35926        38.97426
R17  20540345.91426   -148450.86326     -1045.06626        35.97026
R08  23624652.39324   -584628.95924     -3974.73424        24.94224
E02  28553537.19823     11400.39023      1629.26723        17.66523
E03  24533773.62223   -405920.92323     -2704.32723        23.44023
E07  26793699.10824    191170.81124      1264.68724        28.89424
E15  24909120.97423   -527956.31123     -3530.32523        18.34823
E25  27723448.75623    128571.61423       858.70623        20.33223
> 2024 10 27 14 52 05.9996227  0 18                      
G08  25054785.63325   -375095.95425     -2485.95225        30.40025
G10  20872981.53625     82492.64625       522.13125        32.96025
G15  24499679.42524   -665326.29424     -4405.84024        28.34024
G21  24893576.43626    237772.82326      1536.91426        37.69826
G24  21443788.17425   -446776.01325     -2969.33125        31.05625
G28  24893085.37623    430506.60423      2854.16623        23.31423
G32  21886786.39327    133438.80927       857.55927        42.26227
R10  22970319.37924   -478651.15524     -3187.26324        28.49024
R02  20694699.15825    101632.61425       653.95825        31.44025
R18  22925671.58826    336421.29226      2170.12526        37.36626
R12  23241584.48624    484525.73824      3173.72824        26.08124
R11  21330233.08725     89049.24525       526.14225        32.13025
R24  21533692.63526   -720136.56426     -4737.61726        39.26026
R17  20540363.30226   -149496.60726     -1045.50426        35.54426
R08  23625221.99924   -588600.31224     -3972.47824        25.27224
E03  24534106.09224   -408624.63324     -2703.99624        24.92524
E07  26793275.50125    192435.86725      1264.90925        30.41425
E25  27723104.89423    129430.23823       858.56223        19.79323
> 2024 10 27 14 52 06.9996221  0 19                      
G08  25055079.42924   -377583.50324     -2487.60224        28.92824
G10  20872702.42925     83014.09725       521.99025        32.87725
G15  24500334.47124   -669734.37124     -4407.04024        28.68524
G21  24893104.26326    239310.79526      1538.91326        37.67126
G24  21444172.50824   -449744.62524     -2968.74124        29.33824
G28  24892364.37523    433359.84223      2853.95423        22.60623
G32  21886446.12926    134295.03326       856.85626        41.12126
R10  22970722.89924   -481838.21224     -3188.45624        28.49924
R02  20694400.86425    102287.01425       654.31925        32.64625
R18  22925088.49126    338590.23926      2167.37826        37.28226
R12  23240826.01124    487701.92124      3174.81324        27.49724
R11  21329950.38325     89575.09325       525.70425        32.57825
R24  21534388.15326   -724875.01426     -4739.93226        36.61526
R17  20540374.39526   -150543.24226     -1046.14226        35.70526
R08  23625778.41424   -592571.26024     -3971.73224        27.76524
E03  24534437.06324   -411328.35624     -2703.92624        24.67424
E07  26792855.79224    193700.99024      1265.10124        29.33324
E15  24910109.39024   -534957.75724     -3529.24924        23.63924
E25  27722762.53123    130289.44423       858.71323        20.01623
> 2024 10 27 14 52 07.9996215  0 19                      
G08  25055365.43124   -380070.99924     -2490.02224        25.94224
G10  20872422.42324     83534.94224       520.46924        29.48924
G15  24500991.91624   -674142.18824     -4412.16124        25.38824
G21  24892634.48826    240848.74626      1538.87426        36.11526
G24  21444547.84825   -452712.83425     -2966.76625        30.02225
G28  24891644.57323    436214.05923      2855.30623        21.44723
G32  21886101.36726    135152.00626       858.20126        38.93326
R10  22971124.62125   -485029.48225     -3188.31425        29.75325
R02  20694091.77825    102941.47525       654.98725        31.40725
R18  22924505.99526    340758.51526      2166.57626        35.75626
R12  23240052.24724    490879.10724      3177.75024        27.30424
R11  21329666.77925     90100.10225       524.32025        32.54425
R24  21535097.46226   -729614.00426     -4739.75226        35.89726
R17  20540385.18725   -151590.37625     -1046.82425        34.23225
R08  23626321.33824   -596543.65924     -3970.23224        26.91624
E03  24534767.73424   -414032.46224     -2704.00324        28.58524
E07  26792436.08224    194966.07324      1264.58924        25.24624
E15  24910602.54924   -538487.38224     -3529.61824        25.85224
E25  27722421.06723    131149.17523       858.87323        18.41823
> 2024 10 27 14 52 08.9996208  0 20                      
G08  25055630.14824   -382560.89224     -2490.79024        28.41424
G10  20872111.23825     84055.96725       520.05125        30.79125
G15  24501616.08424   -678555.14324     -4412.35724        26.52224
G18  23568602.89623   -728521.30023     -4764.77823        22.69923
G21  24892124.24126    242386.47526      1538.29726        37.91226
G24  21444909.99825   -455679.71325     -2965.67725        31.45925
G28  24890893.29324    439070.73024      2856.00024        23.82924
G32  21885728.72526    136008.04826       854.75026        40.60226
R10  22971517.34924   -488219.43924     -3187.02824        29.00824
R02  20693752.41325    103595.92525       654.16425        31.96425
R18  22923882.42626    342928.01526      2170.63926        35.67826
R12  23239233.81324    494057.06224      3181.72024        26.97424
R11  21329358.29325     90624.53925       523.64725        33.46325
R24  21535778.59126   -734352.26426     -4738.11026        36.71326
R17  20540367.20025   -152638.01625     -1046.91125        33.98125
R08  23626859.16624   -600515.40624     -3970.36224        26.72724
E03  24535069.02524   -416736.38324     -2703.61224        26.48024
E07  26791980.09824    196231.17024      1265.43724        26.29624
E15  24911065.42823   -542017.08123     -3529.84723        23.35823
E25  27722047.22623    132012.82523       858.15823        20.04223
> 2024 10 27 14 52 09.9996202  0 21                      
G08  25055926.34324   -385048.63424     -2487.94524        28.92924
G10  20871836.02925     84576.30325       519.92725        30.73325
G15  24502281.62324   -682968.43824     -4409.95224        26.85824
G18  23569336.78823   -733283.49923     -4763.23223        20.83923
G21  24891653.26726    243923.89126      1536.70726        37.82926
G24  21445297.33025   -458647.94325     -2967.26125        31.87625
G28  24890168.39523    441929.97223      2855.99823        21.82723
G32  21885387.56126    136864.31726       856.82926        40.85326
R10  22971946.65224   -491403.90524     -3185.78024        28.69624
R02  20693455.31925    104250.59325       654.41925        32.04625
R18  22923299.33026    345099.06826      2174.26726        35.55426
R12  23238468.14324    497236.30624      3180.72224        26.99324
R11  21329070.49225     91148.84525       524.05825        33.25525
R24  21536483.40326   -739090.55026     -4736.65326        36.48626
R17  20540389.38425   -153686.02825     -1047.43525        34.88825
R08  23627424.57424   -604488.93824     -3970.52724        27.20824
E02  28551061.51122     19554.63222      1631.21922        15.98022
E03  24535401.79524   -419439.75524     -2703.19424        25.01424
E07  26791559.19024    197496.97824      1265.78024        25.65324
E15  24911558.28724   -545547.31824     -3530.15724        23.87324
E25  27721704.86323    132870.95623       858.24423        19.49823
> 2024 10 27 14 52 10.9996195  0 20                      
G08  25056215.94324   -387533.08024     -2485.17024        26.75924
G10  20871556.32225     85097.53225       521.70925        30.62725
G15  24502925.87724   -687382.36424     -4408.15924        23.95424
G18  23570060.48723   -738047.42023     -4762.55123        22.08123
G21  24891184.39226    245461.22926      1536.59326        36.48326
G24  21445678.96525   -461614.99825     -2971.46325        30.79425
G28  24889441.99823    444787.93023      2856.00923        22.92923
G32  21885042.50026    137720.62526       856.76826        38.94226
R10  22972365.46224   -494588.59024     -3187.02024        28.27324
R02  20693141.73625    104905.56525       655.70725        31.03825
R18  22922712.33625    347269.72425      2172.52525        34.28225
R12  23237677.89024    500415.82924      3180.98024        25.46524
R11  21328798.28025     91672.83425       524.30125        32.85025
R24  21537192.71225   -743828.95225     -4736.15325        34.27825
R17  20540410.07025   -154735.40925     -1049.33625        33.50025
R08  23627990.28324   -608463.25224     -3969.92324        26.08024
E03  24535741.16024   -422143.00624     -2702.95624        24.87424
E07  26791141.27924    198762.65024      1265.90624        23.93524
E15  24912053.24424   -549078.00324     -3530.33724        25.24124
E25  27721363.39923    133729.55523       858.12223        17.70523
> 2024 10 27 14 52 11.9996189  0 20                      
G08  25056476.16324   -390018.04624     -2484.85624        28.07624
G10  20871248.73525     85618.65125       521.17625        31.50725
G15  24503558.43924   -691792.17324     -4405.89524        24.86724
G18  23570757.50423   -742812.07923     -4763.52423        22.25023
G21  24890681.34026    246998.58626      1537.03626        37.54726
G24  21446037.51725   -464584.13325     -2972.84325        30.97125
G28  24888690.11823    447646.15523      2855.63123        22.39923
G32  21884669.25926    138577.32526       857.46126        39.77526
R10  22972747.99724   -497782.92124     -3191.68724        28.57724
R02  20692805.36925    105561.06025       656.27025        31.92525
R18  22922107.65525    349439.02925      2170.12825        34.65725
R12  23236864.85324    503593.33124      3179.67124        25.43324
R11  21328486.19625     92196.56025       524.27825        31.47825
R24  21537860.94925   -748566.70425     -4737.08025        34.56825
R17  20540397.17925   -155785.62425     -1050.29225        34.66525
R08  23628520.01624   -612435.95524     -3974.33624        26.71324
E03  24536047.24823   -424846.07023     -2703.10023        23.49423
E07  26790692.19024    200028.58624      1265.97424        25.87724
E15  24912517.02324   -552609.28924     -3530.54824        24.92524
E25  27720994.65523    134587.90923       859.24423        19.70823
> 2024 10 27 14 52 12.9996183  0 19                      
G08  25056765.76224   -392505.87324     -2484.90024        27.53524
G10  20870972.02725     86139.75525       520.83525        31.69825
G15  24504223.07924   -696195.51924     -4400.51924        24.77224
G18  23571482.10323   -747576.11223     -4762.07623        21.48723
G21  24890207.66826    248535.67726      1536.77226        37.45626
G24  21446423.65025   -467554.99625     -2971.55225        31.67225
G28  24887967.61924    450506.03924      2856.60124        23.61724
G32  21884327.19626    139433.41726       855.91126        40.22626
R10  22973175.20224   -500974.87124     -3192.92724        27.69424
R02  20692511.27325    106216.31725       655.86525        32.56425
R18  22921521.26125    351606.63025      2166.30025        35.13525
R12  23236095.28624    506770.01124      3177.92024        25.65024
R11  21328206.19025     92719.98325       524.40825        31.05325
R24  21538575.35526   -753304.74326     -4738.22526        35.73326
R17  20540420.56325   -156835.92625     -1050.70825        35.14125
R08  23629079.72824   -616408.74124     -3971.60324        27.31024
E03  24536385.41423   -427549.34323     -2702.89923        23.12123
E07  26790269.78224    201294.24224      1265.83624        26.49624
E15  24913010.78224   -556139.74724     -3530.29724        25.95524
> 2024 10 27 14 52 13.9996177  0 20                      
G08  25057054.76224   -394992.74924     -2486.88324        28.03424
G10  20870684.82625     86662.40925       521.19525        29.99525
G15  24504880.22424   -700593.00424     -4404.68324        23.90524
G18  23572205.80123   -752342.20223     -4763.00223        22.81023
G21  24889730.09826    250072.27326      1535.71426        36.13126
G24  21446807.98425   -470525.24125     -2969.56325        31.69325
G28  24887241.52123    453367.49223      2857.60523        22.80923
G32  21883986.93126    140289.57926       856.13826        39.87726
R10  22973595.51124   -504165.06724     -3192.30824        27.34624
R02  20692216.87625    106870.70025       653.87225        33.13325
R18  22920924.37425    353773.34725      2165.14125        33.78425
R12  23235329.31623    509945.64323      3176.89023        22.89423
R11  21327908.79624     93242.13024       522.10324        29.47224
R24  21539286.16225   -758043.66625     -4739.47925        35.38525
R17  20540438.55025   -157886.90925     -1050.75225        35.21225
R08  23629646.33624   -620376.65124     -3970.54724        25.37524
E03  24536716.98424   -430252.53224     -2703.11824        25.29524
E07  26789848.27424    202560.30124      1266.03324        25.09724
E15  24913503.04124   -559670.06024     -3530.52924        26.80624
E25  27720315.62523    136304.61523       858.28223        18.10523
> 2024 10 27 14 52 14.9996170  0 20                      
G08  25057329.07225   -397481.70225     -2489.92625        30.03925
G10  20870374.54025     87182.23825       522.22525        31.69325
G15  24505503.19324   -704990.85124     -4401.59924        25.85024
G18  23572902.21923   -757109.71123     -4762.40223        21.24623
G21  24889233.04325    251609.90425      1537.50625        34.87125
G24  21447165.93625   -473495.01225     -2969.26825        32.25225
G28  24886486.04423    456229.12523      2857.40423        21.59623
G32  21883613.09026    141145.78726       856.23226        40.78026
R10  22973972.65024   -507355.38924     -3189.16124        27.81724
R02  20691895.49925    107525.19225       653.62325        34.67825
R18  22920310.09925    355939.83125      2165.68425        33.21625
R12  23234549.85623    513117.64523      3173.31723        20.85923
R11  21327600.60924     93762.96624       521.33024        25.70724
R24  21539965.49226   -762782.52726     -4739.32526        38.24226
R17  20540419.66325   -158938.03125     -1050.92625        35.29725
R08  23630153.28524   -624341.80324     -3968.98424        24.25724
E03  24537017.37624   -432955.57324     -2703.06224        26.68024
E07  26789402.78224    203826.46024      1266.27324        28.17924
E15  24913962.62324   -563200.40324     -3530.35124        23.80924
E25  27719937.58723    137163.46823       858.19623        17.93323
> 2024 10 27 14 52 15.9996164  0 20                      
G08  25057622.86925   -399970.25125     -2488.80125        29.51425
G10  20870099.93025     87703.96925       522.20025        34.73025
G15  24506170.83124   -709395.88124     -4405.57424        26.07224
G18  23573635.21224   -761870.49224     -4760.56824        26.62324
G21  24888759.07125    253147.79125      1537.93125        33.69625
G24  21447554.76725   -476465.49525     -2970.31925        30.29825
G28  24885761.44623    459088.84123      2857.16423        19.29423
G32  21883268.02927    142002.40127       856.90727        41.69327
R10  22974392.05924   -510547.99624     -3190.23924        27.83624
R02  20691590.91025    108179.73125       653.70625        33.93125
R18  22919721.60725    358106.96225      2167.14325        32.74225
R12  23233765.59923    516286.78123      3174.74123        23.44223
R11  21327332.89524     94285.74724       522.20224        24.11824
R24  21540663.70926   -767521.43826     -4739.68426        38.86526
R17  20540429.25725   -159990.29325     -1052.16325        33.55425
R08  23630703.70423   -628311.80223     -3969.35623        21.03923
E03  24537352.54425   -435658.51525     -2702.98525        29.50725
E07  26788982.47325    205092.64825      1266.53425        29.79825
E15  24914447.68723   -566724.12523     -3530.42423        21.07023
E25  27719582.63223    138021.55223       858.19023        18.14523
> 2024 10 27 14 52 16.9996158  0 21                      
G08  25057916.66525   -402458.88925     -2488.85225        29.99625
G10  20869820.22425     88225.64425       522.11825        34.91125
G15  24506827.37624   -713806.83724     -4408.24324        26.54624
G18  23574363.10824   -766629.59424     -4758.97924        26.65824
G21  24888287.49725    254685.89225      1538.54625        33.60725
G23  20464395.89423   -321036.90223     -2000.29823        23.24123
G24  21447937.60224   -479436.10624     -2970.23124        28.36424
G28  24885036.24823    461951.61823      2857.65823        19.36523
G32  21882926.86527    142859.41927       857.95827        41.55927
R10  22974811.76924   -513739.18724     -3191.23724        28.42024
R02  20691291.71725    108834.99225       654.74025        33.84625
R18  22919135.51325    360274.68525      2167.81125        32.26325
R12  23232986.73824    519463.78924      3175.05124        23.67624
R11  21327069.97724     94806.35324       518.93724        25.43724
R24  21541367.32226   -772260.32226     -4739.04026        39.46226
R17  20540449.34325   -161043.30825     -1054.03125        33.43125
R08  23631262.81723   -632283.46023     -3969.85823        20.93523
E03  24537688.01225   -438360.60525     -2702.28425        29.99825
E07  26788558.56725    206359.39525      1266.81625        31.03925
E15  24914943.54323   -570249.44123     -3529.96823        19.79223
E25  27719242.36823    138880.20623       858.55123        17.55823
> 2024 10 27 14 52 17.9996152  0 21                      
G08  25058214.65925   -404947.97325     -2490.58425        30.51925
G10  20869540.51825     88747.68825       521.52525        35.04125
G15  24507484.82124   -718216.05024     -4403.59324        25.36724
G18  23575088.90624   -771387.80724     -4755.29024        26.11824
G21  24887814.72425    256223.97125      1538.21225        33.29425
G23  20464601.85124   -323035.73124     -1997.97624        24.65424
G24  21448323.73424   -482406.77124     -2970.71024        27.32224
G28  24884312.84923    464810.37923      2858.82623        19.19723
G32  21882583.60327    143717.17527       858.61327        41.87427
R10  22975221.28524   -516931.08124     -3193.04524        28.29624
R02  20690983.23025    109490.95725       656.36925        34.01025
R18  22918551.51725    362442.01225      2167.35125        32.94325
R12  23232212.37424    522644.01924      3176.30924        23.62424
R11  21326767.48624     95328.07224       518.14224        23.50724
R24  21542071.23426   -776998.94626     -4738.23626        39.76926
R17  20540473.62625   -162096.57925     -1053.92225        34.13825
R08  23631822.23023   -636257.01323     -3970.48623        20.67923
E03  24538021.98125   -441062.51025     -2701.60825        30.45525
E07  26788133.76125    207626.36725      1267.12825        30.43125
E15  24915435.20322   -573778.97222     -3529.68222        16.37022
E25  27718897.00722    139738.74222       858.54022        16.69822
> 2024 10 27 14 52 18.9996145  0 21                      
G08  25058473.97924   -407436.73224     -2489.15824        29.23324
G10  20869233.83025     89269.37725       521.65525        35.00025
G15  24508115.58524   -722621.19624     -4400.88724        25.19224
G18  23575776.62924   -776146.75624     -4758.98824        25.23424
G21  24887310.77325    257761.96725      1536.88725        32.20125
G23  20464784.42524   -325034.73724     -1998.31524        23.99824
G24  21448677.19024   -485375.17724     -2970.81724        26.31424
G28  24883557.67122    467671.18122      2858.47522        17.27022
G32  21882207.96327    144574.24127       855.92427        41.56627
R10  22975590.33024   -520122.92024     -3191.72824        27.69024
R02  20690650.46125    110147.33025       657.09125        33.16425
R18  22917933.04525    364609.04125      2166.69925        32.52625
R12  23231405.33324    525822.80224      3176.78224        24.01224
R11  21326448.50724     95849.66024       520.56624        25.18424
R24  21542739.17226   -781737.12326     -4737.61926        38.79526
R17  20540455.93825   -163150.21425     -1053.93025        33.70325
R08  23632357.06023   -640232.82823     -3970.50023        23.41023
E03  24538326.87025   -443763.21725     -2700.99725        29.79425
E07  26787686.17125    208894.37425      1267.53725        29.96925
E15  24915896.28423   -577318.43123     -3528.97323        21.12823
E25  27718518.66922    140597.94422       859.52922        16.69922
> 2024 10 27 14 52 19.9996139  0 21                      
G08  25058771.37425   -409924.57525     -2488.56625        29.93425
G10  20868949.62725     89791.60825       522.44225        33.14025
G15  24508769.13224   -727023.68324     -4401.56524        25.64024
G18  23576496.43123   -780905.28823     -4767.01623        21.66223
G21  24886837.70125    259300.15925      1537.22925        31.83625
G23  20464978.39024   -327030.52124     -1999.09724        25.46924
G24  21449060.92425   -488345.83025     -2970.68625        32.83525
G28  24882828.57624    470531.28324      2859.53924        23.79024
G32  21881868.29826    145431.21426       856.42726        40.77426
R10  22976005.84224   -523314.74124     -3192.17124        27.92624
R02  20690335.67925    110804.13625       657.99825        33.57725
R18  22917346.65125    366775.51725      2165.22625        34.01525
R12  23230626.47223    529000.28723      3177.14023        20.14923
R11  21326184.98924     96370.08324       522.35224        27.27924
R24  21543448.48126   -786475.90926     -4739.76526        39.22426
R17  20540478.42325   -164204.61825     -1055.29925        34.97325
R08  23632938.05724   -644201.93724     -3969.48924        25.77224
E03  24538657.54124   -446463.95724     -2700.54024        28.65824
E07  26787261.36524    210162.33424      1267.90724        27.28724
E15  24916389.44324   -580847.10424     -3529.34624        27.17524
E25  27718167.01223    141457.58723       859.58623        17.69423
> 2024 10 27 14 52 20.9996133  0 21                      
G08  25059065.47025   -412412.81525     -2489.62425        30.07025
G10  20868674.71725     90314.29225       522.33725        32.71225
G15  24509422.38024   -731426.23124     -4402.16324        25.52624
G18  23577225.82623   -785674.33723     -4767.03423        19.77323
G21  24886364.62825    260838.72225      1538.81925        31.97925
G23  20465181.94924   -329031.35124     -2004.43024        23.84024
G24  21449445.25825   -491316.89025     -2971.08425        32.69325
G28  24882101.58023    473393.46023      2860.27723        21.23423
G32  21881522.93726    146289.01326       858.29126        40.57126
R10  22976437.84324   -526507.32724     -3193.32124        28.71324
R02  20690019.39825    111461.13725       658.22725        31.39525
R18  22916761.45625    368942.27025      2165.75825        34.19725
R12  23229849.11023    532178.18623      3176.97923        19.24523
R11  21325886.09624     96889.86524       523.56624        26.27224
R24  21544146.69826   -791214.35926     -4738.73226        38.14326
R17  20540504.20526   -165259.30226     -1055.20026        35.78326
R08  23633516.35724   -648171.00324     -3966.59824        26.31724
E03  24538989.41124   -449164.55224     -2699.93524        26.59824
E07  26786837.15924    211430.81324      1268.56324        27.49024
E15  24916879.90324   -584376.67224     -3529.44924        26.92324
E25  27717819.25323    142316.26423       858.53123        18.76723
> 2024 10 27 14 52 21.9996126  0 21                      
G08  25059322.39225   -414901.01925     -2489.25925        31.86525
G10  20868363.83225     90836.94925       522.69725        33.53925
G15  24510054.04324   -735828.38324     -4401.22524        27.37224
G18  23577921.04523   -790441.86323     -4764.81923        23.16723
G21  24885862.77625    262378.20825      1540.29025        33.48725
G23  20465358.82724   -331032.50024     -2004.11424        23.69824
G24  21449796.91525   -494287.89425     -2970.44225        32.45125
G28  24881347.00223    476258.53123      2859.91623        18.07723
G32  21881153.59326    147146.86326       858.12826        41.41526
R10  22976850.65724   -529700.09524     -3194.45224        26.12124
R02  20689681.83125    112118.04225       657.25525        31.75825
R18  22916148.08125    371109.13225      2166.57825        34.17525
R12  23229032.47523    535358.23223      3178.70723        18.12923
R11  21325577.31024     97411.29124       523.58224        26.76724
R24  21544832.92326   -795952.13426     -4736.82626        39.15626
R17  20540482.92026   -166314.16326     -1054.98626        35.99926
R08  23634044.29224   -652136.99524     -3964.45324        25.80524
E03  24539295.19924   -451864.05124     -2699.34024        25.58924
E07  26786382.97324    212700.30224      1269.23424        28.42524
E15  24917342.18324   -587906.00524     -3529.51424        25.08024
E25  27717445.41223    143174.76523       858.55123        18.30823
> 2024 10 27 14 52 22.9996120  0 20                      
G08  25059617.98725   -417389.34825     -2488.35025        32.82925
G10  20868086.82425     91359.61625       522.74325        33.42225
G15  24510709.38924   -740229.89724     -4399.79924        28.40824
G18  23578648.94123   -795210.34023     -4764.14023        19.15423
G21  24885387.60525    263917.51625      1539.73925        31.89225
G23  20465551.59324   -333030.76824     -1999.07124        28.69524
G24  21450180.94925   -497259.43525     -2971.38125        29.92025
G28  24880623.30323    479118.73823      2859.79523        19.96923
G32  21880807.33226    148004.28726       857.25426        40.50226
R10  22977271.56624   -532893.27724     -3193.66824        28.13924
R02  20689397.02825    112774.59325       656.35025        33.33325
R18  22915555.39125    373276.10325      2167.62325        34.63525
R11  21325294.00624     97934.58024       523.79424        24.90624
R24  21545542.23126   -800688.82226     -4733.86826        38.66726
R17  20540503.30525   -167369.68825     -1055.14625        35.35325
R08  23634562.03324   -656100.55224     -3963.85724        25.73524
E03  24539629.46825   -454563.52725     -2699.48625        29.54025
E07  26785960.56524    213969.82624      1269.76224        26.58224
E15  24917839.23924   -591434.51224     -3529.18624        26.48524
E25  27717100.65023    144034.18723       859.51823        17.73423
> 2024 10 27 14 52 23.9996114  0 20                      
G08  25059914.18225   -419877.92625     -2488.44325        31.53125
G10  20867805.31925     91881.83225       523.03125        33.72825
G15  24511367.43324   -744631.85724     -4401.83424        27.72524
G18  23579375.63822   -799979.24822     -4763.26422        17.44422
G21  24884910.93525    265455.61125      1537.35225        30.57025
G23  20465747.95824   -335030.81624     -1999.37924        27.94924
G24  21450564.38324   -500232.38724     -2973.05824        28.33024
G28  24879894.50723    481981.73823      2859.44623        21.34423
G32  21880463.47026    148861.66826       857.04826        40.56726
R10  22977687.37824   -536086.45424     -3191.87224        28.29324
R02  20689086.74325    113430.85425       655.83825        31.94225
R18  22914973.49425    375442.73725      2167.16325        33.97625
R11  21325017.59824     98456.65424       518.30524        28.22924
R24  21546246.74426   -805427.58526     -4739.92926        38.05326
R17  20540512.89925   -168425.84125     -1055.73725        33.88725
R08  23635113.35224   -660063.94324     -3966.43024        25.53624
E03  24539964.03625   -457263.42625     -2699.78925        29.63525
E07  26785539.65724    215239.25124      1269.80424        26.62124
E15  24918329.40024   -594967.34224     -3528.77624        24.32024
E25  27716754.09023    144893.82823       859.51223        18.12923
> 2024 10 27 14 52 24.9996108  0 20                      
G08  25060206.18025   -422367.06625     -2488.80825        31.66125
G10  20867524.71325     92403.29425       521.24125        33.80125
G15  24512023.97924   -749034.41524     -4402.33124        26.48724
G18  23580099.63723   -804743.20123     -4764.27923        17.95123
G21  24884444.15825    266992.60525      1535.83125        31.18525
G23  20465943.72224   -337029.81224     -2002.12324        28.07924
G24  21450953.51424   -503205.75124     -2973.81724        28.92124
G28  24879166.31223    484842.97223      2861.40223        18.79523
G32  21880119.90826    149718.03326       855.28826        39.89526
R10  22978089.99924   -539280.61224     -3194.35524        27.98624
R02  20688781.55525    114086.21225       654.41925        31.28725
R18  22914384.70225    377608.00925      2165.64725        33.61225
R11  21324810.14124     98973.35524       515.09724        27.84324
R24  21546948.55826   -810168.51326     -4742.03626        38.45326
R17  20540525.79025   -169482.79725     -1055.55825        33.01425
R08  23635691.95124   -664029.51624     -3969.25024        25.55924
E03  24540300.40425   -459963.75825     -2700.29525        30.94925
E07  26785116.94924    216507.89424      1269.17424        26.31324
E15  24918818.96123   -598507.24023     -3528.89023        23.35123
E25  27716408.43022    145753.42422       859.51222        17.47922
> 2024 10 27 14 52 25.9996100  0 21                      
G08  25060472.39625   -424856.91725     -2490.44225        32.24225
G10  20867218.92526     92924.36526       520.46226        35.57626
G15  24512656.54124   -753437.44024     -4403.37424        27.55324
G18  23580798.15323   -809507.11723     -4764.44523        21.12323
G21  24883941.10625    268529.50425      1536.74525        32.76725
G23  20466112.20524   -339028.73124     -2002.97624        28.46624
G24  21451309.96725   -506179.32925     -2972.79925        29.77725
G28  24878414.73223    487700.18623      2858.72223        21.95423
G32  21879744.56826    150574.95826       857.56726        39.64326
R10  22978483.92724   -542476.94524     -3198.28024        27.09024
R02  20688446.08725    114741.14725       654.82925        32.13525
R18  22913767.72925    379772.44225      2164.25825        33.97825
R12  23225786.02322    548073.05822      3179.16322        16.76022
R11  21324592.49224     99489.00424       514.64524        27.47624
R24  21547621.59226   -814909.79126     -4742.97626        39.05426
R17  20540508.40225   -170540.61725     -1057.03025        31.96525
R08  23636247.46624   -668001.23424     -3971.40724        25.87524
E03  24540604.99325   -462664.57825     -2700.87825        32.38725
E07  26784667.86024    217775.87424      1268.27624        27.12724
E15  24919292.63323   -602044.29323     -3530.09623        21.22023
E25  27716025.59522    146611.91422       859.51222        17.16722
> 2024 10 27 14 52 26.9996095  0 20                      
G08  25060764.69425   -427347.17225     -2490.16225        31.65025
G10  20866941.01725     93444.69025       520.28325        35.31125
G15  24513317.58324   -757840.18024     -4402.54024        27.48024
G18  23581526.64923   -814270.27923     -4762.55423        21.18223
G21  24883469.53325    270066.48125      1537.30725        33.25625
G23  20466318.46324   -341029.13724     -2003.66924        29.12624
G24  21451697.59924   -509152.96324     -2972.56224        29.31824
G28  24877691.33323    490555.66323      2859.92223        20.27123
G32  21879403.10426    151431.61026       857.90926        38.68226
R10  22978903.33624   -545674.52324     -3199.95624        27.60824
R02  20688145.99525    115396.31025       655.80525        32.14225
R18  22913190.32825    381935.86425      2163.19425        35.07425
R11  21324241.73524    100004.30324       515.60324        27.36324
R24  21548338.99526   -819650.40626     -4739.62626        39.84426
R17  20540525.49025   -171599.96025     -1058.75525        32.23325
R08  23636796.38624   -671977.51724     -3970.55724        24.40024
E03  24540939.56125   -465365.68425     -2701.42825        32.34325
E07  26784248.15124    219043.44224      1267.09524        26.66724
E15  24919783.69323   -605578.11923     -3530.47723        21.38223
E25  27715674.53822    147470.45122       858.53622        16.49222
> 2024 10 27 14 52 27.9996089  0 20                      
G08  25061058.49025   -429837.27425     -2489.05125        32.43025
G10  20866664.30926     93965.04926       520.32526        35.82126
G15  24513966.93424   -762242.76224     -4402.89424        27.41124
G18  23582251.54723   -819033.47823     -4763.14723        22.13223
G21  24882995.56125    271603.71325      1537.75725        33.98725
G23  20466525.91925   -343031.98525     -2002.45725        29.54725
G24  21452084.93124   -512127.00224     -2973.30924        28.69524
G28  24876967.93323    493410.15923      2859.54223        20.26823
G32  21879060.74126    152288.20626       857.23426        38.93326
R10  22979325.74424   -548872.85624     -3200.42424        26.62224
R02  20687833.91125    116051.65925       655.78625        31.74025
R18  22912610.23025    384098.78625      2162.08225        35.31725
R11  21323947.63824    100520.27224       514.72324        26.97024
R24  21549050.40326   -824390.37126     -4737.62626        40.09926
R17  20540552.17225   -172660.47925     -1061.53625        32.40225
R08  23637375.58524   -675948.43424     -3966.51024        24.74424
E03  24541273.53025   -468066.77625     -2701.74725        32.97325
E07  26783826.64324    220311.19124      1266.43924        27.43624
E15  24920275.65223   -609113.97623     -3530.94023        20.05523
E25  27715327.37822    148329.06522       858.53622        16.18622
> 2024 10 27 14 52 28.9996083  0 19                      
G08  25061349.58925   -432327.41125     -2489.23425        32.36825
G10  20866386.70126     94485.36126       520.23426        35.99926
G15  24514631.57424   -766645.34824     -4402.26524        27.02624
G18  23582974.94623   -823796.20723     -4761.91323        20.63023
G21  24882518.59125    273140.44625      1536.62225        34.30525
G23  20466729.17824   -345034.09224     -2001.65224        28.61324
G24  21452472.86224   -515102.65824     -2975.40724        28.91224
G28  24876240.63723    496263.18223      2859.23123        20.69923
G32  21878713.28226    153143.70826       855.45426        38.84126
R10  22979726.26724   -552070.35724     -3196.40724        26.72924
R02  20687529.02225    116707.14425       656.29525        31.35725
R18  22912025.03525    386261.52525      2162.19825        35.17125
R11  21323663.13524    101035.61124       516.57024        27.96724
R24  21549753.11626   -829131.28026     -4740.75926        39.72126
R17  20540566.86125   -173722.90525     -1063.58825        32.70725
R08  23637930.80124   -679914.16524     -3962.61024        25.38324
E03  24541606.59925   -470767.85725     -2701.73525        32.05825
E07  26783407.83324    221577.95824      1266.28524        27.92724
E15  24920767.61222   -612652.24022     -3531.65122        17.44822
> 2024 10 27 14 52 29.9996076  0 19                      
G08  25061615.50525   -434818.51625     -2490.85725        32.33525
G10  20866079.11426     95005.30526       519.88126        35.68926
G15  24515263.23624   -771047.45224     -4401.00524        27.15624
G18  23583671.96423   -828557.25523     -4762.46723        21.74423
G21  24882018.23725    274676.04325      1535.15125        34.45125
G23  20466908.15424   -347036.88724     -2002.01724        29.16324
G24  21452834.41224   -518079.59724     -2978.35224        28.88524
G28  24875483.96123    499124.41323      2862.21323        21.10923
G32  21878342.73826    153999.36626       856.00226        38.58526
R10  22980121.09324   -555267.42024     -3196.01124        26.77024
R02  20687204.34625    117362.34125       655.96225        30.62425
R18  22911411.96025    388423.84025      2162.10725        35.37025
R11  21323338.46024    101548.99824       513.20424        27.67624
R24  21550423.15226   -833873.72326     -4743.35226        39.80426
R17  20540553.67125   -174785.71725     -1063.60825        32.70125
R08  23638459.03524   -683879.97624     -3964.52524        24.17924
E03  24541908.49025   -473469.73425     -2701.88625        32.06525
E07  26782957.54424    222845.21224      1266.70724        26.89324
E15  24921230.79122   -616192.23522     -3530.76122        17.14822
> 2024 10 27 14 52 30.9996070  0 19                      
G08  25061909.00125   -437310.66125     -2492.19425        31.76625
G10  20865798.80825     95524.76825       519.60925        34.72925
G15  24515914.68524   -775445.68024     -4401.31824        27.11224
G18  23584393.86423   -833317.98023     -4763.04923        21.73623
G21  24881547.26325    276211.04025      1534.70625        33.60525
G23  20467103.61924   -349041.23124     -2003.91424        28.43524
G24  21453213.05024   -521057.89824     -2980.90624        28.00124
G28  24874758.16323    501988.61023      2862.83323        20.50623
G32  21878000.67526    154854.13226       854.18826        37.84026
R10  22980566.28524   -558465.99024     -3199.20124        28.54624
R02  20686907.85224    118016.54224       654.52124        29.23624
R18  22910824.06725    390585.17125      2161.11625        35.14925
R11  21323079.43925    102060.72525       510.76525        29.56425
R24  21551127.36526   -838617.35626     -4745.01826        39.21426
R17  20540563.26425   -175849.45025     -1063.92425        32.08525
R08  23639022.34524   -687848.63424     -3963.79524        25.40124
E03  24542243.95825   -476171.27125     -2701.88225        30.80725
E07  26782531.53924    224112.62524      1267.07224        26.93024
E15  24921722.15123   -619734.27523     -3531.38323        20.45423
> 2024 10 27 14 52 31.9996064  0 19                      
G08  25062202.79825   -439803.12625     -2493.20225        32.61425
G10  20865516.40425     96043.61825       518.62425        35.42625
G15  24516567.93324   -779849.04124     -4404.07424        26.99924
G18  23585120.56123   -838079.54323     -4762.89423        23.11823
G21  24881074.79025    277745.78225      1534.06025        34.95425
G23  20467300.28324   -351046.41924     -2005.50624        28.79724
G24  21453600.38224   -524036.23124     -2978.69924        28.06924
G28  24874032.66623    504854.18023      2861.49723        23.37423
G32  21877658.31226    155708.01126       853.18826        36.83326
R10  22980997.08724   -561666.86924     -3202.69424        26.54124
R02  20686602.96325    118670.01425       652.33825        30.04725
R18  22910230.17826    392745.77426      2160.15526        35.61426
R11  21322806.62824    102572.38224       511.41624        29.44024
R24  21551835.77526   -843360.74626     -4744.21726        39.91926
R17  20540574.05625   -176913.65225     -1063.20225        32.38625
R08  23639578.46024   -691813.17224     -3965.27624        23.64224
E03  24542577.62725   -478872.92125     -2701.77125        30.70125
E07  26782112.72924    225379.98524      1267.13824        27.70324
E15  24922214.11023   -623278.42923     -3530.71023        19.50023
> 2024 10 27 14 52 32.9996057  0 19                      
G08  25062469.61325   -442296.14725     -2493.52325        32.91425
G10  20865205.81925     96561.92725       517.88125        35.32425
G15  24517195.99824   -784252.44624     -4403.61224        26.36424
G18  23585816.97923   -842841.17823     -4762.86623        20.53923
G21  24880569.34025    279280.58525      1534.40525        34.93825
G23  20467472.66424   -353051.71524     -2005.34124        28.56724
G24  21453957.43424   -527014.75424     -2979.03824        28.41024
G28  24873277.48823    507719.96123      2861.82723        21.60723
G32  21877276.97626    156561.78226       852.34026        37.50826
R10  22981369.12924   -564869.31024     -3205.28424        28.91824
R02  20686271.99225    119323.47525       653.53925        30.40525
R18  22909620.10026    394906.01826      2160.16026        36.25126
R11  21322515.23025    103083.08025       510.03925        31.51425
R24  21552518.70226   -848103.57626     -4742.47926        40.52126
R17  20540568.06125   -177978.31525     -1064.42425        33.43725
R08  23640108.79324   -695777.36624     -3964.20224        24.75224
E03  24542880.11825   -481574.19225     -2701.53325        30.92125
E07  26781662.14124    226646.78524      1267.21624        27.91124
E15  24922679.08823   -626819.31523     -3531.49923        21.07623
> 2024 10 27 14 52 33.9996051  0 19                      
G08  25062763.11025   -444789.25425     -2493.10625        33.45325
G10  20864926.41226     97080.18926       517.69526        35.80226
G15  24517857.94024   -788655.33024     -4403.53624        26.98324
G18  23586543.37623   -847602.47023     -4761.32223        22.23023
G21  24880098.66626    280815.13026      1534.44426        35.72326
G23  20467669.92724   -355056.90524     -2004.83024        29.32124
G24  21454340.26924   -529993.66924     -2979.34024        27.85924
G28  24872551.69123    510581.90823      2862.62323        22.73123
G32  21876939.71026    157415.24326       853.55326        37.88126
R10  22981773.84924   -568071.78524     -3204.78324        28.39224
R02  20685979.69425    119977.12625       654.59025        30.99725
R18  22909031.00826    397066.22726      2160.83826        35.99326
R11  21322233.72525    103592.76625       508.95025        31.09925
R24  21553225.31326   -852848.04326     -4745.50826        40.42626
R17  20540596.84125   -179044.27225     -1066.21125        34.40425
R08  23640678.09923   -699745.02123     -3965.38923        23.01123
E03  24543218.28425   -484276.49625     -2701.78625        31.61325
E07  26781240.33324    227916.70924      1267.18324        27.38124
E15  24923168.35023   -630351.58023     -3532.28423        21.25123
> 2024 10 27 14 52 34.9996045  0 19                      
G08  25063058.70625   -447282.24825     -2492.69725        31.84025
G10  20864643.70825     97598.04025       517.33925        33.86925
G15  24518513.28624   -793054.37224     -4403.79524        25.59124
G18  23587266.47523   -852361.98623     -4760.37723        22.68123
G21  24879626.79325    282349.84725      1534.49025        34.29325
G23  20467872.58724   -357062.78924     -2005.46524        29.04924
G24  21454725.20324   -532973.77424     -2981.33024        27.33124
G28  24871831.28923    513443.22023      2861.74423        22.40223
G32  21876592.55026    158268.83426       853.38526        36.71026
R10  22982212.44524   -571274.05524     -3203.13724        28.80824
R02  20685680.20224    120631.35124       655.39624        29.45624
R18  22908452.10925    399225.75825      2160.01625        35.32925
R11  21321947.42325    104101.41325       507.18125        30.87125
R24  21553933.12326   -857592.46926     -4745.19926        39.53226
R17  20540622.92325   -180111.45425     -1067.10825        34.19225
R08  23641237.81223   -703709.21023     -3965.84923        21.18323
E03  24543552.85225   -486978.49525     -2701.87725        29.50525
E07  26780818.52524    229188.88224      1266.71724        27.58924
E15  24923660.30923   -633883.79023     -3531.99123        20.59223
> 2024 10 27 14 52 35.9996039  0 19                      
G08  25063352.20225   -449775.38025     -2492.46625        32.35525
G10  20864362.20325     98116.27825       517.91625        33.54425
G15  24519175.82824   -797458.20524     -4403.27124        26.08024
G18  23587992.27324   -857119.45424     -4760.60724        24.66224
G21  24879157.01825    283884.17425      1533.55525        34.85125
G23  20468076.44625   -359069.06325     -2006.68525        30.07225
G24  21455109.23724   -535953.39024     -2979.10324        27.91624
G28  24871105.79223    516304.98223      2861.67823        22.82723
G32  21876253.18526    159122.34226       852.49826        36.85026
R10  22982619.26424   -574475.60224     -3199.38624        27.74524
R02  20685368.41725    121284.64025       653.44925        29.99425
R18  22907871.41125    401384.90625      2159.64825        35.32325
R11  21321669.51525    104609.44925       507.64525        30.46425
R24  21554644.83026   -862336.73226     -4744.12726        40.29226
R17  20540630.71725   -181179.49225     -1068.60325        34.79625
R08  23641800.22223   -707671.50023     -3965.12323        20.61123
E03  24543886.22124   -489680.32024     -2701.98924        29.45724
E07  26780393.41924    230464.27624      1266.28224        27.36724
E15  24924157.06523   -637416.64723     -3531.92623        19.01023
> 2024 10 27 14 52 36.9996032  0 19                      
G08  25063616.02025   -452268.76925     -2493.35325        32.86425
G10  20864052.21725     98634.57325       518.80725        33.49725
G15  24519802.99424   -801858.69524     -4399.59024        27.02824
G18  23588687.79124   -861877.93324     -4761.83624        25.04624
G21  24878654.26625    285418.07125      1533.45825        35.04725
G23  20468256.32125   -361074.69725     -2005.34625        29.94425
G24  21455462.39224   -538933.38524     -2979.36724        27.92224
G28  24870351.21423    519166.32923      2861.24723        22.76323
G32  21875877.84526    159975.40926       852.54526        36.34426
R10  22983014.99024   -577676.71024     -3199.34324        29.00624
R02  20685032.65025    121937.69125       652.78025        30.70925
R18  22907250.24126    403543.69526      2158.83926        35.85626
R11  21321355.33325    105118.19425       509.35225        30.38225
R24  21555329.25626   -867081.42626     -4745.76726        40.43726
R17  20540621.42426   -182248.21826     -1069.75226        35.83426
R08  23642341.94723   -711633.82623     -3966.17923        20.06723
E03  24544186.31325   -492381.94625     -2701.82825        29.77425
E07  26779944.93024    231740.16024      1266.24224        27.03124
E15  24924618.74522   -640950.17122     -3532.11622        16.98322
> 2024 10 27 14 52 37.9996026  0 18                      
G08  25063911.01525   -454763.34425     -2494.65325        32.61525
G10  20863773.41025     99151.74525       516.51125        33.07125
G15  24520463.43624   -806260.37324     -4401.13124        26.61724
G18  23589412.09024   -866639.12524     -4762.49224        25.94024
G21  24878180.89425    286951.32325      1532.86625        35.28425
G23  20468454.48425   -363081.02225     -2005.61325        30.39825
G24  21455851.82324   -541914.18324     -2981.36324        26.92824
G28  24869629.91323    522027.79123      2861.70023        23.00623
G32  21875539.37926    160829.12426       854.92926        36.54826
R10  22983423.60724   -580879.42824     -3201.57524        27.30924
R02  20684738.25425    122590.41525       653.33725        31.07025
R18  22906660.54926    405701.38426      2157.50326        35.55826
R11  21321082.82225    105626.46225       509.36225        29.68925
R24  21556032.86926   -871827.12126     -4746.65726        40.29526
R17  20540645.40726   -183318.44226     -1070.92626        36.17026
R08  23642896.86323   -715600.13423     -3966.47823        18.63723
E03  24544523.28025   -495083.54725     -2701.82225        30.39125
E07  26779519.22524    233006.39224      1266.06424        27.93824
> 2024 10 27 14 52 38.9996020  0 18                      
G08  25064208.41025   -457258.89125     -2496.49525        31.79725
G10  20863497.30125     99668.10025       513.95725        30.96825
G15  24521124.47924   -810662.52524     -4401.98024        25.20024
G18  23590136.98824   -871402.36724     -4761.04724        24.80924
G21  24877710.22025    288484.07425      1532.41125        34.32925
G23  20468655.04525   -365087.49125     -2004.82825        30.62325
G24  21456251.14624   -544895.36724     -2982.15224        28.48724
G28  24868904.71623    524889.79523      2862.06223        20.74423
G32  21875195.21725    161683.57425       856.40025        35.22825
R10  22983836.12124   -584084.03324     -3205.36324        27.52924
R02  20684429.16825    123243.30425       653.56225        30.41625
R18  22906081.05026    407858.19726      2156.60126        36.00826
R11  21320829.49725    106133.78225       508.43825        29.51225
R24  21556734.98326   -876573.73826     -4747.21826        39.48426
R17  20540670.88926   -184389.51526     -1071.60526        36.43026
R08  23643462.87123   -719566.38523     -3967.80323        20.66123
E03  24544856.05024   -497785.35924     -2701.56424        29.28424
E07  26779101.61424    234272.49124      1266.12524        27.06824
> 2024 10 27 14 52 39.9996014  0 18                      
G08  25064502.50625   -459754.33825     -2495.68825        33.09625
G10  20863218.19525    100184.42725       515.38125        32.50725
G15  24521781.02424   -815065.68024     -4404.69824        25.42124
G18  23590864.88424   -876165.17424     -4758.95824        27.60524
G21  24877237.74725    290017.28025      1533.05825        35.05425
G23  20468857.70525   -367094.30825     -2006.35225        30.75425
G24  21456636.38024   -547877.39324     -2981.80724        28.60824
G28  24868180.71723    527752.70823      2862.46623        23.02423
G32  21874850.75625    162537.43525       855.28725        35.28725
R10  22984269.62124   -587290.07024     -3206.32724        28.77524
R02  20684133.27325    123895.76025       652.09225        31.42025
R18  22905495.25625    410014.73125      2155.79625        34.10025
R11  21320545.89325    106639.41825       506.12625        30.26825
R24  21557429.30226   -881319.86426     -4746.26326        39.78726
R17  20540690.97626   -185461.25326     -1071.85826        36.83326
R08  23644020.78523   -723532.32323     -3966.86123        21.40023
E03  24545188.81924   -500487.06624     -2701.90824        28.69124
E07  26778677.10824    235538.80024      1266.34924        27.27824
> 2024 10 27 14 52 40.9996007  0 19                      
G08  25064765.72425   -462248.76325     -2494.38925        31.95725
G10  20862907.01025    100700.77325       516.33625        31.57825
G12  25126336.49923    327959.76723      1760.34123        21.16123
G15  24522399.79624   -819469.87124     -4404.93524        25.09624
G18  23591561.90224   -880925.75624     -4760.75924        27.59224
G21  24876735.59425    291551.69025      1533.52225        32.36325
G23  20469027.38725   -369102.97325     -2009.21025        29.62125
G24  21456990.73424   -550860.64324     -2984.13524        28.73824
G28  24867426.73923    530615.37723      2862.06023        21.02523
G32  21874476.31525    163389.88425       852.57125        35.00525
R10  22984675.24024   -590500.31524     -3208.39024        28.48024
R02  20683809.49725    124546.57925       649.06125        29.78125
R18  22904877.38326    412170.20326      2155.40126        35.70426
R11  21320231.71124    107143.29224       503.02824        29.39324
R24  21558112.52926   -886066.56526     -4746.75226        40.28026
R17  20540684.38026   -186534.09026     -1072.61326        36.76926
R08  23644550.81823   -727499.54323     -3966.48023        19.41823
E03  24545493.70824   -503189.70824     -2702.52024        26.93724
E07  26778231.91624    236805.29824      1266.73624        27.70824
> 2024 10 27 14 52 41.9996001  0 20                      
G08  25065057.42225   -464744.64125     -2495.41925        31.06425
G10  20862633.59925    101217.00325       516.51225        33.11825
G12  25125808.56523    329720.21923      1760.96623        23.23223
G15  24523058.44024   -823873.45324     -4404.36524        25.87924
G18  23592291.89624   -885688.36524     -4762.93524        28.51324
G21  24876262.52225    293084.27025      1533.33125        34.67525
G23  20469232.44525   -371112.57225     -2009.76325        30.56325
G24  21457380.46525   -553844.70925     -2984.21925        29.91725
G28  24866703.93923    533477.03123      2860.82723        20.87823
G32  21874131.55425    164241.27625       850.77225        34.47325
R10  22985082.65824   -593711.62024     -3210.93624        28.13024
R02  20683502.80925    125197.04525       649.50625        30.05225
R18  22904302.08226    414324.82626      2154.88926        36.01626
R11  21319955.30224    107645.60624       501.10724        28.77724
R24  21558811.04626   -890813.66426     -4746.51526        39.60326
R17  20540713.46026   -187607.91126     -1073.89326        38.45026
R08  23645119.22523   -731468.09523     -3967.81123        18.19623
E03  24545829.17624   -505892.78224     -2703.23824        28.07424
E07  26777812.20624    238071.44624      1266.79724        24.88824
E15  24927079.74222   -658658.24822     -3532.67822        14.90422
> 2024 10 27 14 52 42.9995995  0 20                      
G08  25065353.91725   -467241.20725     -2496.08225        31.59825
G10  20862354.19325    101733.46925       517.20325        32.47825
G12  25125289.62423    331482.19823      1761.22323        22.33523
G15  24523722.48024   -828276.33324     -4402.49824        26.19724
G18  23593017.69424   -890451.33124     -4762.86924        28.09424
G21  24875792.74725    294616.04425      1531.91025        34.95525
G23  20469427.31025   -373122.07125     -2010.03225        31.14225
G24  21457769.59525   -556829.07325     -2984.71525        30.52525
G28  24865979.04123    536337.21823      2862.13523        21.71523
G32  21873788.29125    165092.44825       850.87225        33.51625
R10  22985511.36224   -596920.57724     -3209.86324        29.32124
R02  20683193.42325    125848.13525       651.00125        30.25425
R18  22903720.18426    416479.27826      2154.70826        36.44126
R11  21319765.53324    108147.41424       501.01024        29.28924
R24  21559529.04926   -895561.32326     -4747.80226        39.27426
R17  20540741.64026   -188682.57626     -1075.07326        39.08026
R08  23645688.23122   -735436.78322     -3966.74222        14.89022
E03  24546162.84524   -508596.28424     -2703.81224        28.30424
E07  26777392.79724    239337.86224      1266.42524        26.42724
E15  24927585.49222   -662192.02422     -3533.65522        14.66422
> 2024 10 27 14 52 43.9995989  0 21                      
G08  25065651.01125   -469738.66925     -2497.44825        32.93925
G10  20862073.58725    102249.34625       516.62125        31.35325
G12  25124774.58024    333241.64824      1760.34724        24.75824
G15  24524379.02624   -832678.89224     -4401.64824        28.50524
G18  23593743.79124   -895214.90924     -4763.97024        29.34824
G21  24875322.37326    296147.08226      1530.75326        36.48626
G23  20469635.06725   -375131.28425     -2007.97025        31.48725
G24  21458154.82925   -559813.80125     -2983.73125        32.15725
G28  24865251.74423    539197.46023      2862.03823        22.42023
G32  21873446.22825    165943.33325       851.43625        32.96225
R10  22985929.57225   -600128.92625     -3208.49125        30.07225
R02  20682898.42725    126498.66325       650.66525        31.08725
R18  22903138.88726    418633.25826      2155.15326        37.62126
R12  23211832.78324    605321.95924      3179.27424        27.14924
R11  21319432.76425    108648.70525       500.54125        30.64725
R24  21560231.76226   -900310.51726     -4749.64226        40.35126
R17  20540751.23426   -189758.82326     -1076.45826        39.66826
R08  23646247.64323   -739404.31223     -3966.07323        17.74423
E03  24546497.11424   -511299.85324     -2704.09024        27.43224
E07  26776975.18624    240602.94824      1265.57024        26.88124
E15  24928085.54522   -665725.56122     -3533.65522        13.80422
> 2024 10 27 14 52 44.9995982  0 21                      
G08  25065916.02725   -472236.58525     -2497.94025        32.24625
G10  20861762.40225    102764.03125       513.95025        29.97025
G12  25124248.74524    335002.07924      1760.91024        24.05124
G15  24525008.89024   -837079.07024     -4400.69024        25.86524
G18  23594436.91124   -899978.37524     -4764.22624        28.39424
G21  24874821.41925    297678.07325      1530.27225        35.06025
G23  20469813.44325   -377141.69925     -2010.13925        31.79225
G24  21458513.08125   -562799.01025     -2984.50025        30.91425
G28  24864495.36823    542058.59123      2860.71423        21.06123
G32  21873074.48625    166794.94125       853.12825        32.29925
R10  22986331.29425   -603338.37625     -3209.15125        29.56125
R02  20682566.55725    127148.50725       649.20925        30.46825
R18  22902523.11326    420786.29426      2152.46226        37.15526
R12  23211032.63624    608502.41924      3179.82024        25.64224
R11  21319113.48524    109148.94924       499.28724        29.28424
R24  21560914.98926   -905059.61826     -4748.96626        38.77026
R17  20540743.43926   -190835.69926     -1077.43226        38.97926
R08  23646795.96422   -743371.93322     -3968.23822        17.48522
E03  24546803.80124   -514003.25224     -2703.90524        26.23124
E07  26776521.00024    241867.97524      1264.96324        27.33224
E15  24928525.34122   -669259.30522     -3533.65522        13.92922
> 2024 10 27 14 52 45.9995976  0 21                      
G08  25066204.42825   -474735.42025     -2500.13525        32.31925
G10  20861485.69425    103278.31125       514.14425        31.39125
G12  25123729.80424    336762.10924      1759.36524        23.78124
G15  24525663.33724   -841478.98924     -4403.90624        26.75724
G18  23595165.70724   -904741.40424     -4762.10524        29.31924
G21  24874350.14626    299208.37926      1529.73726        35.83026
G23  20470017.00225   -379152.87025     -2011.12825        33.11225
G24  21458903.11125   -565785.09625     -2985.70625        30.56725
G28  24863771.36923    544923.20623      2860.93923        21.33323
G32  21872730.02425    167645.85825       851.10825        31.92725
R10  22986764.19424   -606548.72024     -3210.43824        29.12424
R02  20682269.76325    127797.56925       648.64425        30.10325
R18  22901937.61926    422937.43726      2149.61426        37.42326
R12  23210262.76924    611681.79024      3179.54324        25.86024
R11  21318834.37824    109648.79024       499.96724        27.85324
R01  19958903.53922   -388317.32622     -2049.30722        14.96422
R24  21561619.20226   -909808.64626     -4747.63326        40.09526
R17  20540764.42526   -191914.07926     -1079.55126        39.28926
E03  24547131.47424   -516707.63624     -2704.40424        27.54324
E07  26776099.49224    243132.38524      1264.35524        25.63624
E15  24929027.49322   -672792.82522     -3533.65522        13.12322
> 2024 10 27 14 52 46.9995970  0 19                      
G08  25066501.82225   -477235.29025     -2500.62725        31.63925
G10  20861211.98325    103792.48325       514.41525        32.49825
G12  25123221.95524    338521.40724      1759.45424        24.62424
G15  24526321.38124   -845881.90024     -4402.48524        27.70624
G18  23595896.00124   -909504.73924     -4762.31724        29.38524
G21  24873874.97526    300738.29426      1529.42726        35.76226
G23  20470219.96225   -381165.26425     -2013.07325        33.11725
G24  21459289.84325   -568772.66025     -2987.89825        31.04425
G28  24863046.47123    547786.64423      2861.17223        19.39623
G32  21872387.96125    168495.15525       848.77825        31.74225
R10  22987189.60024   -609760.78924     -3213.46124        28.10124
R02  20681956.77925    128446.60325       648.94525        30.04225
R18  22901368.61226    425089.10826      2151.98726        37.61926
R12  23209512.98924    614860.75724      3178.11124        25.62424
R11  21318548.67624    110147.61424       499.34024        27.04724
R24  21562330.01026   -914558.99926     -4751.65926        39.61726
R17  20540781.21326   -192992.46926     -1077.53326        38.72226
E03  24547467.84224   -519412.48224     -2704.62524        26.18324
E07  26775677.68424    244396.33624      1263.71524        26.05424
> 2024 10 27 14 52 47.9995963  0 19                      
G08  25066765.04025   -479734.89925     -2499.66925        32.27025
G10  20860905.29625    104306.39025       513.86925        32.18325
G12  25122676.63324    340280.38124      1759.05324        25.52224
G15  24526947.64724   -850284.81824     -4402.25124        27.34224
G18  23596594.51825   -914268.22025     -4763.16725        29.74125
G21  24873375.52026    302268.02526      1529.72126        36.24726
G23  20470393.54125   -383178.02525     -2013.80325        33.74025
G24  21459648.99425   -571760.40325     -2988.28425        31.66225
G28  24862290.99423    550647.68023      2862.14023        19.15423
G32  21872019.21625    169344.41725       848.47625        34.64925
R10  22987582.32825   -612974.23825     -3215.49025        29.96125
R02  20681628.80625    129096.35925       650.63625        32.16525
R18  22900736.65026    427240.53626      2152.52826        38.51326
R12  23208729.63124    618039.87024      3177.08324        26.76124
R11  21318249.18324    110646.08024       498.10724        27.90324
R24  21563010.53826   -919310.00126     -4751.61026        39.98226
R17  20540769.52126   -194071.21226     -1077.89326        39.63626
E03  24547772.13124   -522116.98624     -2704.45324        26.87624
E07  26775229.79424    245660.39824      1263.72424        28.56924
> 2024 10 27 14 52 48.9995957  0 19                      
G08  25067061.53425   -482234.83225     -2499.58025        31.23325
G10  20860630.68625    104819.68625       513.34825        30.47725
G12  25122159.19124    342040.79924      1759.00024        24.47524
G15  24527604.19324   -854688.92224     -4405.27324        25.88224
G18  23597316.71824   -919032.29124     -4763.45324        28.68424
G21  24872906.34525    303797.08125      1528.76725        34.97025
G23  20470600.69825   -385190.90925     -2013.74425        32.37125
G24  21460041.42225   -574749.09325     -2988.66925        31.83625
G28  24861568.79422    553508.95322      2862.90922        14.81222
G32  21871678.95225    170192.83725       847.89425        35.45825
R10  22988000.53825   -616188.24325     -3214.80325        30.48325
R02  20681335.30925    129746.24625       651.43625        32.63325
R18  22900166.44526    429390.98726      2150.84926        37.29926
R12  23207959.16424    621219.32724      3174.39124        27.36624
R11  21317985.96524    111142.82924       497.03824        27.78424
R24  21563706.05726   -924061.74726     -4752.63826        38.71126
R17  20540792.30526   -195152.36826     -1080.93926        38.93026
E03  24548112.99524   -524821.59624     -2704.35624        23.96624
E07  26774808.28624    246924.74124      1264.13224        28.91424
> 2024 10 27 14 52 49.9995951  0 20                      
G08  25067358.92925   -484734.78725     -2499.76525        31.09925
G10  20860356.37624    105332.25224       512.40324        29.11924
G12  25121644.44724    343804.31524      1759.28824        24.40424
G15  24528258.34024   -859092.26724     -4402.60624        27.55424
G18  23598044.61424   -923797.25124     -4763.27124        27.89724
G21  24872436.87025    305326.06325      1529.19725        34.77325
G23  20470800.36025   -387201.93225     -2013.19325        30.80225
G24  21460429.05425   -577738.51525     -2990.45925        32.06225
G28  24860854.38922    556320.49522      2862.25422        16.40522
G32  21871344.38326    171041.20126       848.25826        36.80126
R10  22988418.14925   -619402.45925     -3215.03625        30.26925
R02  20681023.52525    130395.39725       649.38125        34.62325
R18  22899581.55026    431540.31326      2148.36126        36.43326
R12  23207176.40624    624396.37924      3175.94124        26.39624
R11  21317718.25124    111639.57224       497.52224        27.73124
R24  21564418.66426   -928813.02226     -4751.18126        38.38426
R17  20540813.89026   -196234.72026     -1083.80826        39.35226
R08  23649504.28923   -763208.57123     -3968.94823        19.02523
E03  24548446.66424   -527526.21324     -2704.45724        23.59124
E07  26774388.87624    248188.82724      1264.30324        27.05224
> 2024 10 27 14 52 50.9995945  0 20                      
G08  25067657.22225   -487236.01025     -2501.99225        32.01125
G10  20860075.17024    105844.86024       512.19924        28.83624
G12  25121131.80224    345565.08424      1759.50624        25.34524
G15  24528919.08324   -863495.30524     -4401.61124        27.76224
G18  23598765.31524   -928563.26824     -4761.35624        25.66524
G21  24871964.99726    306855.47026      1529.32926        35.89726
G23  20471000.92124   -389213.54124     -2014.09324        28.76824
G24  21460815.18725   -580728.08725     -2989.56325        33.81225
G28  24860127.69222    559183.18422      2862.90222        16.30022
G32  21871008.31626    171890.31626       849.79726        39.21926
R10  22988844.45425   -622616.65525     -3214.59225        29.85025
R02  20680723.13326    131044.21326       648.37126        35.75026
R18  22899007.44725    433689.70625      2148.19325        35.07825
R12  23206386.45324    627573.82224      3175.58624        27.45124
R11  21317446.63924    112135.84224       497.26524        29.01824
R24  21565126.77326   -933565.13226     -4751.79226        37.72826
R17  20540839.67326   -197316.94026     -1081.89026        39.54526
R08  23650128.45724   -767177.56924     -3969.19024        23.93824
E03  24548779.43423   -530231.44123     -2703.84023        20.94723
E07  26773970.66624    249453.19524      1264.38424        25.34624
> 2024 10 27 14 52 51.9995938  0 20                      
G08  25067923.13825   -489737.21925     -2501.92425        32.04425
G10  20859769.08225    106357.19825       511.86525        30.88925
G12  25120588.57824    347324.08424      1759.35724        24.70424
G15  24529545.94924   -867897.99824     -4402.26424        28.06924
G18  23599463.83124   -933327.61924     -4764.50524        25.49724
G21  24871464.64326    308384.52626      1529.63426        36.22526
G23  20471168.80524   -391228.79724     -2019.35524        28.01324
G24  21461176.43725   -583717.96225     -2989.65725        34.90225
G28  24859380.90922    562046.06322      2862.90222        15.92622
G32  21870633.57526    172739.38026       850.12026        40.13526
R10  22989237.48224   -625831.90124     -3212.44424        29.33124
R02  20680392.76226    131692.23726       647.73026        36.90926
R18  22898392.27326    435838.80526      2149.58526        35.72626
R12  23205578.81224    630750.45824      3176.32424        28.02824
R11  21317145.64724    112630.56024       493.64024        28.44224
R24  21565810.00026   -938316.75526     -4750.31126        37.89926
R17  20540835.77526   -198399.42926     -1081.10426        39.90926
R08  23650682.47324   -771145.99824     -3966.89024        24.08024
E03  24549082.82423   -532936.33423     -2703.65623        18.28323
E07  26773519.47824    250718.00124      1264.48624        26.93824
> 2024 10 27 14 52 52.9995932  0 20                      
G08  25068218.43325   -492238.29025     -2501.41025        31.89225
G10  20859487.57725    106870.56425       512.58825        30.58925
G12  25120073.23524    349083.43424      1759.11324        25.22424
G15  24530205.49224   -872300.50924     -4401.97024        26.99924
G18  23600180.03524   -938092.45324     -4765.06224        25.12524
G21  24870992.47026    309913.83626      1529.95426        36.52026
G23  20471372.36424   -393244.31824     -2017.98524        27.47124
G24  21461566.46725   -586707.93625     -2989.57925        34.70525
G28  24858646.71722    564909.26522      2862.90222        15.27322
G32  21870295.11026    173587.40726       847.66426        38.77226
R10  22989661.38925   -629045.95925     -3212.51225        29.62925
R02  20680089.07226    132340.29026       647.17526        36.16326
R18  22897803.18126    437987.91926      2149.10226        35.56626
R12  23204805.04824    633928.13424      3175.51824        29.02924
R11  21316847.05424    113123.73624       491.57124        26.69724
R24  21566515.71226   -943068.39726     -4750.76726        37.73126
R17  20540856.16126   -199482.90126     -1083.11426        39.82226
R08  23651197.81624   -775113.52124     -3967.19424        23.85724
E03  24549415.29322   -535639.98422     -2703.62022        15.82522
E07  26773099.76924    251982.20024      1264.39024        26.91324
> 2024 10 27 14 52 53.9995926  0 19                      
G08  25068514.02925   -494739.21825     -2500.35625        31.20425
G10  20859210.86925    107383.18525       513.07225        30.91025
G12  25119561.19024    350840.90524      1758.43024        25.19224
G15  24530855.14224   -876703.07124     -4402.79724        26.37124
G18  23600912.72824   -942856.44324     -4763.08924        25.01624
G21  24870522.69526    311442.33726      1528.76826        35.69126
G23  20471578.02124   -395259.45324     -2015.76924        28.36424
G24  21461956.79625   -589699.23325     -2991.55125        33.71225
G32  21869954.84526    174436.21126       849.51826        39.08926
R10  22990065.20924   -632261.73124     -3215.41324        29.32124
R02  20679793.17726    132987.88226       647.44926        36.56626
R18  22897213.48925    440135.50825      2146.79325        35.05825
R12  23204008.79924    637106.15124      3176.03224        26.98824
R11  21316593.13024    113617.73824       490.73924        26.02124
R24  21567233.71526   -947820.82526     -4752.28726        36.68226
R17  20540874.74826   -200568.19726     -1086.26826        39.97826
R08  23651756.92923   -779078.56923     -3968.83523        22.95923
E03  24549746.26423   -538342.16223     -2704.19023        21.62023
E07  26772676.76224    253246.15824      1264.23124        26.40224
> 2024 10 27 14 52 54.9995919  0 19                      
G08  25068780.54425   -497240.50925     -2500.49725        31.23725
G10  20858899.08525    107895.65925       512.10325        31.54925
G12  25119007.47323    352599.58123      1759.45323        23.49823
G15  24531485.30624   -881101.65324     -4402.15424        26.90824
G18  23601613.94324   -947621.86224     -4766.10024        24.27124
G21  24870022.04226    312970.74326      1528.55826        35.53826
G23  20471753.40024   -397272.92324     -2013.53824        27.45924
G24  21462317.14725   -592690.99825     -2992.06525        32.72825
G32  21869582.50326    175284.18426       846.90926        40.71226
R10  22990469.92925   -635478.52425     -3217.61225        29.93525
R02  20679465.20426    133635.49226       647.45326        35.68826
R18  22896607.30925    442282.06725      2144.63325        32.07425
R12  23203206.25524    640283.67924      3176.07324        26.56424
R11  21316283.44424    114110.60024       493.13924        27.35124
R24  21567906.44926   -952574.21626     -4753.66326        36.59126
R17  20540872.35026   -201654.96226     -1087.19126        39.60526
R08  23652273.17223   -783040.52323     -3963.44023        22.39523
E03  24550051.15323   -541043.27523     -2704.66223        20.85523
E07  26772226.47324    254509.96224      1263.90824        25.82724
> 2024 10 27 14 52 55.9995913  0 19                      
G08  25069073.74125   -499742.29125     -2501.30225        30.41725
G10  20858622.67625    108407.53025       511.53225        29.82725
G12  25118498.42524    354359.30524      1760.77124        24.65624
G15  24532146.94824   -885502.28824     -4403.40924        28.13824
G18  23602335.54324   -952393.00624     -4767.67324        24.38324
G21  24869548.67025    314499.15225      1529.06425        34.40025
G23  20471964.15424   -399287.77224     -2014.00324        28.94324
G24  21462704.47925   -595683.57225     -2992.57725        32.96725
G32  21869243.43826    176130.79626       845.34326        37.55626
R10  22990896.83325   -638696.91225     -3220.47125        31.20025
R02  20679163.01325    134283.07825       647.29925        34.75325
R18  22896025.11225    444427.81525      2144.87425        32.73625
R12  23202419.29924    643463.09924      3178.06224        28.32024
R11  21315979.75424    114603.93824       495.54924        26.27124
R24  21568619.05626   -957328.26826     -4754.78926        37.90726
R17  20540899.03226   -202741.92726     -1088.17526        39.29926
R08  23652829.88723   -787001.46823     -3964.89923        22.71523
E03  24550384.22323   -543742.83323     -2704.46723        17.60523
E07  26771807.96324    255773.49824      1263.47624        25.82624
> 2024 10 27 14 52 56.9995907  0 19                      
G08  25069366.93824   -502244.96724     -2502.74424        28.75624
G10  20858343.86924    108919.47824       510.43424        25.56524
G12  25117996.27323    356121.33523      1759.75523        20.73123
G15  24532798.99724   -889906.79324     -4405.07724        23.58024
G18  23603055.34524   -957161.62124     -4767.35924        27.82324
G21  24869078.89525    316026.97725      1528.11825        34.34025
G23  20472167.11424   -401303.51424     -2015.99124        26.93324
G24  21463092.41025   -598676.71025     -2994.19425        33.10025
G32  21868901.07526    176977.93026       846.50026        37.47926
R10  22991318.94124   -641916.14724     -3220.58524        29.20624
R02  20678863.82025    134930.72025       647.17625        35.10325
R18  22895448.01125    446572.26925      2145.56225        29.58525
R12  23201633.84323    646641.89823      3179.60523        22.70923
R11  21315727.02924    115095.47324       491.68324        29.26424
R24  21569328.96426   -962081.97526     -4753.08426        36.71326
R17  20540919.71726   -203828.12426     -1084.46626        35.58826
R08  23653394.99523   -790962.41623     -3966.61123        19.95223
E03  24550720.59024   -546440.93824     -2705.23524        27.60724
E07  26771386.15523    257039.06323      1263.42723        22.35523
> 2024 10 27 14 52 57.9995901  0 20                      
G08  25069667.93025   -504747.75125     -2503.03425        31.72225
G10  20858062.96324    109434.12924       511.41424        23.61024
G12  25117480.63023    357886.49923      1759.22523        19.84523
G15  24533457.64124   -894310.96224     -4406.63524        26.22024
G18  23603779.64323   -961924.06623     -4765.41023        23.40723
G21  24868604.62325    317553.94825      1526.39925        35.12025
G23  20472365.87624   -403324.18724     -2017.99324        28.36024
G24  21463477.64425   -601670.37925     -2995.34025        31.17325
G32  21868556.61326    177825.92726       848.51926        36.34126
R10  22991757.23825   -645135.82725     -3219.63925        30.36925
R02  20678553.83526    135577.71226       647.22526        36.42726
R18  22894869.71225    448718.05625      2146.43025        34.07625
R12  23200866.07524    649821.08124      3180.81324        25.04724
R11  21315459.91424    115586.06024       489.49524        26.21924
R01  19961274.29724   -412941.01924     -2053.52424        26.03724
R24  21570038.87326   -966836.52826     -4754.63026        39.09926
R17  20540936.50626   -204915.83226     -1086.62226        38.51126
R08  23653953.50924   -794928.22024     -3968.37924        24.02824
E03  24551054.55924   -549137.67524     -2705.18624        23.63424
E07  26770967.34523    258302.80023      1263.57123        21.28823
> 2024 10 27 14 52 58.9995894  0 19                      
G08  25069937.14425   -507252.11325     -2505.56025        31.23725
G10  20857755.67623    109950.93823       511.53223        21.95723
G12  25116935.90723    359645.77423      1759.88223        20.24523
G15  24534085.70624   -898716.34624     -4408.91524        23.58924
G21  24868105.76925    319080.22025      1526.36225        33.35925
G23  20472540.35524   -405344.32924     -2018.39124        27.08524
G24  21463831.09924   -604665.99924     -2995.53724        28.68324
G32  21868185.17025    178673.35725       848.33525        35.06325
R10  22992150.56525   -648355.87325     -3220.34625        29.68225
R02  20678214.47025    136224.85125       646.91525        34.45925
R18  22894249.74125    450863.44225      2145.43825        33.47525
R12  23200057.23524    653001.95524      3180.19224        24.26724
R11  21315136.73824    116077.59124       487.27624        24.66824
R01  19961499.44124   -415000.09224     -2055.69824        24.19024
R24  21570712.50626   -971590.69726     -4753.77826        36.77026
R17  20540924.21426   -206005.87426     -1090.38726        38.37326
R08  23654487.43924   -798896.52924     -3967.50324        24.43724
E03  24551360.34723   -551832.60923     -2704.70923        21.98523
E07  26770520.65423    259566.01523      1263.87523        21.75723
> 2024 10 27 14 52 59.9995888  0 19                      
G08  25070236.03725   -509756.60525     -2504.56025        32.58825
G10  20857479.56724    110462.47424       511.00724        23.94624
G12  25116422.36323    361403.11923      1759.21323        20.53323
G15  24534752.44424   -903121.44224     -4408.16524        24.82424
G21  24867638.69225    320606.45625      1526.14825        34.28225
G23  20472746.31324   -407361.41524     -2016.46824        27.48124
G24  21464225.02624   -607656.54324     -2994.68024        29.33724
G32  21867843.70725    179519.95625       846.48125        35.33825
R10  22992562.18024   -651579.65224     -3221.97624        28.32824
R02  20677907.78225    136871.63325       647.00325        34.89325
R18  22893666.94425    453007.70825      2144.63225        34.17825
R12  23199282.87124    656184.22724      3179.22324        23.98324
R11  21314853.43424    116566.71924       490.57924        25.01724
R01  19961719.78924   -417057.41424     -2054.50324        23.86024
R24  21571422.71526   -976346.03826     -4755.32626        37.71126
R17  20540952.99426   -207097.07926     -1091.67426        39.31826
R08  23655051.94824   -802864.77724     -3968.11124        25.68824
E03  24551694.01623   -554526.19123     -2705.44423        23.42223
E07  26770099.14623    260829.43923      1263.45223        22.70823
> 2024 10 27 14 53 00.9995881  0 19                      
G08  25070532.23225   -512261.12025     -2504.24125        32.63025
G10  20857203.75824    110972.50624       510.58624        24.00124
G12  25115907.61923    363159.02723      1759.46723        20.83723
G15  24535410.78924   -907523.59924     -4407.15624        24.73924
G21  24867167.11825    322131.81025      1525.09525        34.80125
G23  20472945.37525   -409378.19525     -2016.33825        29.93025
G24  21464615.05624   -610651.22424     -2993.45424        29.07624
G32  21867502.84325    180365.29125       845.09125        34.75525
R10  22992986.98624   -654803.39224     -3222.81824        28.67724
R02  20677605.59225    137517.53125       646.19525        35.48825
R18  22893081.74925    455151.48925      2144.10725        33.05925
R12  23198506.40824    659367.90824      3179.37824        23.88424
R11  21314608.80324    117054.72924       489.55624        24.51024
R01  19961896.66624   -419113.17024     -2054.14624        26.98324
R24  21572130.52526   -981102.47626     -4756.87726        37.95126
R17  20540969.78326   -208189.25626     -1091.90326        38.34026
R08  23655610.16224   -806833.40124     -3968.89424        25.18124
E03  24552027.68523   -557218.15223     -2705.28123        23.36323
E07  26769677.63823    262093.15923      1263.26423        22.23323
> 2024 10 27 14 53 01.9995876  0 20                      
G08  25070829.02625   -514765.48025     -2503.51425        30.54025
G10  20856925.55124    111482.63924       510.18824        25.23624
G12  25115392.57622    364918.24822      1758.99122        15.50622
G15  24536070.33223   -911930.01123     -4406.97623        22.19123
G18  23606655.55224   -981001.23224     -4765.79924        23.89324
G21  24866697.34425    323657.44325      1525.18325        34.07225
G23  20473143.83724   -411395.15124     -2016.32924        29.02224
G24  21465006.28524   -613645.58624     -2993.18324        27.44524
G32  21867161.07925    181210.83725       844.80025        31.95325
R10  22993419.58724   -658028.73424     -3223.77924        28.18724
R02  20677304.90025    138163.83125       646.68925        34.35925
R18  22892487.26124    457295.89824      2142.77424        28.85424
R12  23197730.54523    662552.40523      3179.03823        19.05123
R11  21314346.78524    117542.97824       491.50224        26.80924
R01  19962071.14624   -421167.69124     -2053.53424        28.59024
R24  21572839.23426   -985859.29626     -4757.89226        36.07526
R17  20541005.45825   -209281.98425     -1093.66925        35.29425
R08  23656172.27323   -810802.42523     -3968.61523        23.29323
E03  24552364.35223   -559913.72123     -2705.22023        22.00523
E07  26769256.42923    263357.27523      1263.59223        21.07623
> 2024 10 27 14 53 02.9995868  0 20                      
G08  25071097.64025   -517269.75025     -2503.39425        32.99825
G10  20856618.26424    111993.41924       510.28724        25.63224
G12  25114850.55123    366676.59223      1760.98423        20.69823
G15  24536698.09723   -916336.24823     -4406.28523        22.94523
G18  23607352.87023   -985772.29223     -4766.28323        20.67223
G21  24866192.79325    325182.78725      1524.07025        32.83125
G23  20473323.41324   -413411.25824     -2016.49224        27.44324
G24  21465371.13324   -616641.12824     -2994.99724        27.24324
G32  21866794.13325    182056.59325       845.31725        33.60425
R10  22993805.12024   -661250.82224     -3222.15724        28.83024
R02  20676972.43025    138810.18325       646.92925        33.22325
R18  22891884.07825    459438.63725      2142.83825        32.20625
R12  23196915.41024    665736.82624      3179.29024        24.34424
R11  21314036.20024    118030.90124       492.86424        24.08524
R01  19962260.01524   -423219.96824     -2054.49924        26.52724
R24  21573517.96426   -990616.73526     -4758.58326        35.72826
R17  20541008.75626   -210375.82226     -1094.06226        38.98626
R08  23656697.20923   -814771.00123     -3968.91023        22.55123
E03  24552669.54124   -562619.60724     -2705.26624        25.21824
E07  26768806.44123    264621.37823      1263.33323        22.39723
> 2024 10 27 14 53 03.9995863  0 20                      
G08  25071395.33425   -519775.26525     -2504.93625        34.57525
G10  20856334.66024    112501.85624       507.95524        26.49024
G12  25114335.20823    368432.45123      1760.27823        22.13523
G15  24537357.04124   -920740.58024     -4406.06624        25.69224
G18  23608080.46623   -990538.70023     -4766.95823        20.36723
G21  24865720.62025    326707.84925      1525.26925        34.47625
G23  20473523.97424   -415429.74624     -2019.13024        28.60124
G24  21465757.86524   -619638.61224     -2998.02724        28.55124
G32  21866451.47125    182902.31125       845.97825        35.26325
R10  22994232.62424   -664469.57924     -3222.42424        28.84824
R02  20676671.73825    139455.58825       645.43425        33.61325
R18  22891301.28225    461580.74925      2142.17125        34.13325
R12  23196138.64724    668921.79424      3179.20724        25.35724
R11  21313759.49124    118525.55024       492.46224        23.77024
R01  19962442.88824   -425271.34524     -2054.92024        23.68524
R24  21574232.07026   -995374.08826     -4756.71526        37.35926
R17  20541030.34126   -211471.10026     -1096.36526        40.38026
R08  23657253.32423   -818740.36323     -3968.01423        22.60123
E03  24553007.10724   -565324.98724     -2705.61124        25.57924
E07  26768386.43224    265885.11624      1263.03424        24.49524
> 2024 10 27 14 53 04.9995857  0 20                      
G08  25071690.63025   -522281.18125     -2505.82725        34.91125
G10  20856056.75224    113010.48124       507.34824        26.53024
G12  25113822.56223    370192.69223      1761.37823        23.26223
G15  24538016.58524   -925144.06424     -4405.62024        25.28724
G18  23608811.96023   -995304.97723     -4766.42023        17.87323
G21  24865251.74425    328233.08825      1525.52825        34.37925
G23  20473730.23124   -417445.92724     -2018.54624        28.81624
G24  21466150.59325   -622637.09425     -2998.62825        29.66725
G32  21866111.80625    183747.86025       846.51825        35.30925
R10  22994672.71924   -667691.55724     -3224.00624        28.11424
R02  20676368.34825    140100.49725       644.21525        34.00725
R18  22890719.98425    463722.11125      2142.07725        34.68925
R12  23195357.68824    672099.57224      3178.06424        26.04424
R11  21313514.26124    119014.61024       482.44524        24.44624
R01  19962628.76024   -427328.23124     -2057.55324        25.48624
R24  21574931.48626  -1000131.33826     -4756.50526        36.97926
R17  20541050.42726   -212567.17226     -1096.87726        40.55626
R08  23657814.83623   -822710.26823     -3968.24023        20.26223
E03  24553342.57524   -568030.52124     -2705.77024        25.64124
E07  26767965.52324    267148.63724      1262.58224        25.59324
> 2024 10 27 14 53 05.9995850  0 20                      
G08  25071959.54425   -524788.25325     -2508.22525        34.98825
G10  20855758.15924    113518.49324       507.86124        27.60624
G12  25113282.63624    371949.25224      1759.67824        24.03424
G15  24538642.25124   -929547.74224     -4404.29024        26.88924
G18  23609512.27523  -1000068.14323     -4765.73123        18.10623
G21  24864752.29025    329758.19425      1525.68725        35.13625
G23  20473906.80924   -419460.67324     -2019.40124        28.60824
G24  21466513.04224   -625635.99124     -2999.09024        29.27324
G32  21865740.96325    184592.94425       845.95525        35.43825
R10  22995044.76224   -670916.28524     -3224.25824        27.87924
R02  20676032.88025    140744.89525       644.34425        34.41925
R18  22890120.69925    465863.38325      2141.54025        34.90525
R12  23194564.43724    675276.91724      3176.37724        27.81724
R11  21313226.46024    119496.46824       479.15024        26.35324
R01  19962801.74024   -429388.25724     -2057.33224        24.78524
R24  21575606.31926  -1004889.98226     -4759.72426        37.26726
R17  20541048.62826   -213663.91826     -1096.68526        41.00526
R08  23658348.46623   -826681.50023     -3967.74923        20.64123
E03  24553645.96524   -570736.36524     -2705.86224        26.24524
E07  26767516.13424    268411.44724      1262.33724        25.75724
> 2024 10 27 14 53 06.9995844  0 20                      
G08  25072252.44125   -527295.84825     -2508.86425        35.25325
G10  20855489.24525    114026.36225       507.02725        29.97025
G12  25112765.49424    373703.98324      1759.89024        23.64924
G15  24539296.69824   -933949.47424     -4401.70124        27.81724
G18  23610241.37023  -1004829.14223     -4765.09623        19.82223
G21  24864283.41526    331282.94826      1525.17126        35.91626
G23  20474117.26424   -421481.10124     -2021.33424        29.44924
G24  21466907.56925   -628634.58325     -2998.36725        29.59025
G32  21865400.09826    185437.73826       844.91826        35.77926
R10  22995487.55524   -674140.36524     -3225.59424        27.10924
R02  20675737.58525    141389.37025       644.08925        35.11925
R18  22889540.90125    468003.81825      2140.55725        34.95325
R12  23193796.06924    678454.07624      3176.86724        27.96124
R11  21312968.03924    119974.40324       482.40124        26.57524
R01  19963007.99724   -431447.90224     -2056.01024        24.54124
R24  21576332.41626  -1009649.24026     -4760.59826        37.40426
R17  20541068.11426   -214761.83426     -1099.06826        41.05126
R08  23658908.17922   -830651.48122     -3965.84822        16.93022
E03  24553980.83324   -573442.68224     -2705.95924        26.46024
E07  26767095.82524    269673.45124      1262.56224        26.54724
> 2024 10 27 14 53 07.9995838  0 20                      
G08  25072548.63625   -529803.85125     -2508.52525        34.29625
G10  20855219.13224    114534.20824       507.89424        29.18524
G12  25112250.75123    375461.59123      1759.62823        20.87323
G15  24539958.04124   -938348.94724     -4398.74224        25.90424
G18  23610977.36122  -1009594.23722     -4766.59822        16.41622
G21  24863814.24025    332807.11825      1523.93625        33.71825
G23  20474320.22324   -423502.19824     -2021.61024        26.89324
G24  21467297.00024   -631634.80924     -3001.34324        27.24624
G32  21865059.83425    186281.25325       843.89025        34.79925
R10  22995899.17024   -677368.09524     -3229.52424        29.23624
R02  20675440.19125    142032.90225       643.04625        35.41525
R18  22888954.50725    470143.17525      2139.26925        35.22225
R12  23193006.71624    681631.18424      3175.65524        27.73424
R11  21312691.63124    120449.22224       478.47324        28.43724
R01  19963220.85024   -433507.49824     -2058.87824        26.17324
R24  21577040.52626  -1014409.22626     -4760.57526        36.34226
R17  20541092.99726   -215861.51026     -1100.61826        40.91126
R08  23659474.78622   -834617.56822     -3965.16222        13.82022
E03  24554317.50024   -576149.21624     -2706.30624        26.08024
E07  26766676.71524    270934.53724      1262.21024        25.70024
> 2024 10 27 14 53 08.9995832  0 20                      
G08  25072849.02825   -532311.85225     -2508.33525        33.00025
G10  20854949.01924    115042.04024       507.63824        28.27924
G12  25111734.50823    377220.19023      1759.11423        18.56323
G15  24540608.29024   -942745.27724     -4399.55024        25.36224
G18  23611697.76223  -1014360.45823     -4767.93023        20.41423
G21  24863340.86725    334330.94725      1523.78025        33.09325
G23  20474518.38624   -425522.89324     -2021.30424        27.33124
G24  21467683.43224   -634635.08824     -3000.99624        28.40224
G32  21864719.57025    187124.71825       842.90025        32.38125
R10  22996308.68724   -680595.69924     -3233.47224        27.39824
R02  20675141.59725    142676.99825       643.70525        35.27425
R18  22888370.81125    472281.80525      2138.53825        32.55025
R12  23192285.11524    684805.39424      3177.67824        24.97324
R11  21312407.12824    120930.93324       483.59924        27.59924
R01  19963430.40524   -435565.94324     -2060.59724        27.76224
R24  21577749.53526  -1019169.01826     -4760.46826        36.63426
R17  20541119.67926   -216960.63126     -1098.81626        37.84726
R08  23660036.29822   -838584.95022     -3965.06622        13.83522
E03  24554650.86924   -578855.35424     -2706.45724        23.50824
E07  26766256.70623    272195.06823      1262.19923        21.92723
> 2024 10 27 14 53 09.9995825  0 19                      
G08  25073115.84325   -534820.07325     -2508.82425        33.87425
G10  20854646.52924    115549.16324       506.30524        28.29824
G15  24541237.85524   -947147.60724     -4402.11024        25.67024
G18  23612395.97822  -1019127.80022     -4769.87222        15.31122
G21  24862843.21225    335853.82725      1522.37925        32.93525
G23  20474683.87124   -427544.24224     -2021.47224        28.91124
G24  21468043.78324   -637635.77924     -3000.38924        29.00624
G32  21864346.32825    187967.55725       842.20925        32.13325
R10  22996706.51124   -683830.75924     -3232.05924        27.14124
R02  20674815.42326    143320.67826       644.31226        36.26326
R18  22887761.93225    474420.61925      2139.30325        33.18825
R12  23191425.61023    687982.73723      3176.09623        23.34823
R11  21312122.92424    121412.87224       483.90824        28.26224
R01  19963607.58224   -437623.41524     -2056.93724        28.76624
R24  21578421.96926  -1023928.11026     -4757.36426        37.42226
R17  20541119.97926   -218060.21226     -1099.02226        39.31926
R08  23660563.93222   -842555.99522     -3966.86922        15.43622
E03  24554960.25524   -581562.14124     -2707.23924        25.50924
E07  26765805.51823    273454.36423      1261.75723        22.52823
> 2024 10 27 14 53 10.9995819  0 21                      
G08  25073412.93725   -537328.99325     -2509.95725        32.80625
G10  20854377.01524    116055.44624       505.27824        28.21524
G12  25110673.84223    380731.27823      1758.43123        19.92823
G15  24541891.70224   -951551.07624     -4404.20824        24.56524
G18  23613078.30622  -1023869.72922     -4769.65922        15.19122
G21  24862373.73725    337377.17925      1523.16725        32.91625
G23  20474888.92924   -429565.25024     -2020.49124        27.96324
G24  21468432.91324   -640636.03924     -2999.38724        28.18724
G32  21864007.86225    188810.82825       842.71525        30.87925
R10  22997120.82524   -687066.52224     -3231.65424        26.08324
R02  20674521.62726    143965.16926       644.72326        35.96026
R18  22887182.43325    476559.30425      2138.80525        32.05725
R12  23190662.03924    691166.98224      3180.28224        24.33924
R11  21311843.81824    121896.21324       481.76024        28.30924
R01  19963815.93824   -439679.67124     -2054.43824        27.80524
R24  21579139.07326  -1028687.04326     -4758.02426        36.46726
R17  20541139.16526   -219160.42226     -1100.02826        38.10326
R08  23661147.92822   -846520.65722     -3965.07222        16.98022
E03  24555290.92624   -584268.80824     -2706.77024        24.33524
E07  26765384.31023    274713.10523      1262.12123        19.50123
E15  24941110.92824   -761248.78524     -3543.04324        24.06324
> 2024 10 27 14 53 11.9995813  0 21                      
G08  25073710.03225   -539838.20325     -2509.90325        33.51725
G10  20854096.11024    116562.25224       507.07624        28.02124
G12  25110159.99823    382487.66023      1757.57923        19.95623
G15  24542543.15124   -955954.69424     -4404.51724        25.03024
G18  23613787.01522  -1028639.71722     -4769.88022        14.33122
G21  24861905.16125    338900.49125      1523.64625        33.58225
G23  20475096.68624   -431586.42424     -2020.05124        29.01224
G24  21468826.24124   -643637.42224     -3000.44424        29.15224
G32  21863667.29825    189653.73725       842.48725        30.84225
R10  22997523.14624   -690298.43824     -3229.22624        27.19924
R02  20674222.13426    144609.25626       645.14226        36.39526
R18  22886611.02925    478697.01825      2137.08925        32.74825
R12  23189890.37324    694341.80224      3175.96824        24.70424
R11  21311582.69824    122380.73924       478.86324        27.17824
R01  19964004.50724   -441736.91224     -2057.17424        27.92424
R24  21579855.87726  -1033447.14126     -4758.89026        37.22126
R17  20541170.34426   -220262.05226     -1101.26626        38.69026
R08  23661721.73123   -850485.91823     -3965.07223        18.73023
E03  24555629.99123   -586975.92423     -2706.51823        21.53423
E07  26764963.40123    275970.86923      1262.04123        20.73523
E15  24941606.18524   -764792.82624     -3543.17324        25.19324
> 2024 10 27 14 53 12.9995807  0 22                      
G08  25074009.82425   -542347.52825     -2509.63125        33.43825
G10  20853818.50224    117069.50824       506.71924        28.00324
G12  25109649.15222    384242.83022      1756.47022        15.69422
G15  24543202.99424   -960357.84024     -4401.95024        24.16424
G18  23614520.00822  -1033409.40622     -4769.88022        16.01922
G21  24861432.38825    340423.06825      1522.24025        33.26425
G23  20475300.24524   -433608.03724     -2022.14724        29.04424
G24  21469216.87024   -646639.45624     -3001.61624        27.31824
G27  25197482.64623   -763689.57323     -3563.53723        22.51123
G32  21863328.53325    190496.46425       842.10425        30.71625
R10  22997969.23724   -693527.38024     -3227.19724        27.51224
R02  20673921.44226    145253.25726       644.18226        36.73026
R18  22886019.23925    480834.08025      2136.42625        33.40425
R12  23189110.91324    697513.40424      3175.84524        25.57524
R11  21311314.98424    122859.67024       479.48024        27.39524
R01  19964225.45424   -443793.28724     -2060.54724        28.37824
R24  21580558.89026  -1038208.07226     -4761.36326        36.65726
R17  20541187.13226   -221364.83526     -1103.81826        38.25526
R08  23662248.46623   -854451.00623     -3965.76723        23.11123
E03  24555968.45723   -589682.87823     -2706.43423        21.69123
E07  26764544.59123    277227.64123      1262.33023        22.32123
E15  24942101.74224   -768337.22724     -3543.48524        25.68124
> 2024 10 27 14 53 13.9995800  0 22                      
G08  25074274.54125   -544856.88725     -2509.45525        34.05225
G10  20853507.01724    117580.35224       507.02324        28.99424
G12  25109109.22523    385997.26823      1754.32423        19.68523
G15  24543840.35323   -964759.08623     -4398.69323        22.83123
G18  23615219.12422  -1038179.50522     -4769.88022        16.17522
G21  24860932.33525    341945.11025      1521.56125        34.14425
G23  20475480.72024   -435630.90124     -2024.35724        28.56924
G24  21469576.92124   -649641.47324     -3001.34424        27.08824
G27  25197935.93223   -767254.54523     -3563.75223        21.99823
G32  21862953.49225    191339.71225       843.27325        31.37825
R10  22998392.84424   -696757.62524     -3231.34424        28.18924
R02  20673587.77326    145896.64726       643.38126        36.09826
R18  22885412.45925    482970.72725      2136.47025        33.70725
R12  23188318.56124    700689.02724      3177.57824        25.85524
R11  21310971.42124    123336.46624       476.90924        24.60924
R01  19964402.33224   -445854.64924     -2061.24824        28.04124
R24  21581238.51926  -1042970.39126     -4763.22926        36.94426
R17  20541188.63126   -222468.83526     -1104.73326        39.33126
R08  23662795.58724   -858417.04424     -3965.47924        24.72524
E03  24556272.44623   -592387.92823     -2706.55623        22.89723
E07  26764091.60523    278483.35523      1261.91523        23.15723
E15  24942566.12124   -771881.42824     -3543.87524        26.95924
> 2024 10 27 14 53 14.9995794  0 21                      
G08  25074574.33325   -547366.78625     -2510.41325        34.78025
G10  20853234.50624    118086.80024       506.99924        29.14124
G12  25108592.68323    387753.69623      1755.28323        21.83323
G15  24544495.10024   -969159.97124     -4400.06824        25.06024
G21  24860463.45925    343467.32725      1522.19325        34.98125
G23  20475695.97125   -437653.96325     -2023.81525        30.29425
G24  21469963.65324   -652645.03624     -3003.64324        27.44424
G27  25198431.48923   -770818.58523     -3566.24423        20.71923
G32  21862610.53025    192182.87125       843.29925        32.12125
R10  22998820.04824   -699989.60324     -3234.22224        27.62224
R02  20673290.07926    146540.01126       642.76626        35.97226
R18  22884835.35825    485106.87525      2136.47325        34.42425
R12  23187538.80124    703863.05724      3174.17324        26.62924
R11  21310702.50823    123809.96723       474.79923        22.79823
R01  19964614.28524   -447913.88924     -2060.17124        28.25924
R24  21581952.02626  -1047731.59026     -4761.10526        36.94926
R17  20541223.10726   -223572.99926     -1104.65526        39.35026
R08  23663366.69224   -862388.66424     -3967.90824        25.31624
E03  24556609.71324   -595092.22924     -2706.74724        25.00024
E07  26763671.89524    279738.17924      1262.34924        24.34424
E15  24943061.97824   -775425.81024     -3544.23624        28.81124
> 2024 10 27 14 53 15.9995788  0 21                      
G08  25074868.43025   -549877.04625     -2510.10525        33.89525
G10  20852953.60124    118593.34824       507.41724        28.47124
G12  25108077.93923    389509.17323      1755.35423        19.95623
G15  24545144.45024   -973562.57724     -4404.18024        25.17824
G21  24859993.38525    344989.56725      1523.19925        34.42925
G23  20475899.53025   -439677.16525     -2023.92525        30.44425
G24  21470351.58524   -655649.19124     -3004.88524        27.42924
G27  25198923.74823   -774381.08523     -3566.97523        19.34323
G32  21862270.26525    193025.97525       843.94125        31.20625
R10  22999246.65324   -703221.87524     -3234.49124        29.22024
R02  20672983.39126    147183.06626       642.79326        35.85126
R18  22884251.06325    487243.00025      2136.53225        34.95525
R12  23186779.72624    707033.37924      3175.14924        27.44124
R11  21310430.59623    124281.10923       475.45123        23.49723
R01  19964829.53624   -449972.20824     -2059.46724        27.40224
R24  21582658.33726  -1052492.89926     -4760.93426        36.91826
R17  20541239.89626   -224677.54726     -1103.68026        39.93226
R08  23663926.40524   -866357.30624     -3970.12324        26.55224
E03  24556943.98124   -597795.79924     -2706.77424        25.65624
E07  26763250.68723    280991.91523      1262.35323        22.94823
E15  24943556.33524   -778970.41724     -3544.54124        28.45624
> 2024 10 27 14 53 16.9995781  0 20                      
G08  25075140.34225   -552387.24825     -2509.85025        32.69325
G10  20852651.71024    119100.06724       506.78524        25.71124
G12  25107532.61722    391262.79022      1755.43622        15.50322
G15  24545767.71924   -977965.77924     -4404.60924        24.76024
G21  24859496.02925    346512.02725      1522.84425        33.92025
G23  20476074.00925   -441700.48625     -2022.70425        29.98625
G24  21470714.03424   -658654.39824     -3006.95624        27.33724
G32  21861901.82025    193868.56225       843.04125        29.71725
R10  22999637.88224   -706454.21824     -3231.90824        28.08424
R02  20672650.92225    147826.12325       643.03925        35.31525
R18  22883638.58725    489378.38725      2135.72925        32.76125
R12  23185956.49624    710207.31124      3171.77524        25.33624
R11  21310129.60424    124754.67024       476.01924        24.78324
R01  19964988.72624   -452030.10824     -2057.33824        28.86524
R24  21583340.06526  -1057254.55326     -4762.31926        36.35926
R17  20541234.19926   -225782.69226     -1104.01326        37.95626
R08  23664456.13824   -870325.55324     -3968.70524        24.93824
E03  24557248.57123   -600498.46923     -2706.89123        22.79823
E07  26762799.20023    282244.70823      1262.23523        19.88823
E15  24944017.71624   -782515.06024     -3545.10824        27.94924
> 2024 10 27 14 53 17.9995775  0 20                      
G08  25075435.93725   -554897.78125     -2510.27325        31.74925
G10  20852374.70124    119601.93224       506.62624        26.27924
G12  25107008.58022    393014.15322      1755.09822        15.15022
G15  24546439.25424   -982369.54224     -4407.31024        23.66724
G21  24859026.85425    348033.69525      1521.39425        33.25325
G23  20476280.56624   -443723.87524     -2022.54524        28.92624
G24  21471110.06024   -661660.73624     -3008.41224        25.76224
G32  21861560.35725    194710.88825       842.52125        29.55325
R10  23000059.69024   -709686.28124     -3230.22124        28.11624
R02  20672351.42926    148468.90126       642.99026        35.50626
R18  22883061.48625    491512.82725      2134.19825        32.97725
R12  23185209.41424    713380.27524      3174.79424        25.66824
R11  21309858.29224    125230.16924       476.08724        24.99724
R01  19965196.78224   -454088.01424     -2056.05124        28.06824
R24  21584053.87026  -1062018.24226     -4765.23226        35.74826
R17  20541263.87926   -226888.98026     -1106.03726        39.27626
R08  23664998.16324   -874293.82624     -3964.79524        25.34924
E03  24557582.83924   -603200.34524     -2706.73424        25.17024
E07  26762377.39223    283496.43123      1261.90723        21.21623
E15  24944510.27524   -786060.20224     -3545.55324        28.26124
> 2024 10 27 14 53 18.9995769  0 19                      
G08  25075734.23025   -557408.14125     -2510.73825        31.54625
G10  20852088.69924    120108.87624       507.09024        26.95424
G15  24547094.30023   -986778.28023     -4409.48123        23.42123
G21  24858555.88025    349555.52725      1521.26625        32.74725
G23  20476484.42524   -445746.22624     -2021.62124        29.03624
G24  21471511.78224   -664666.41924     -3007.91224        25.43424
G32  21861219.49325    195554.41425       843.93825        30.10425
R10  23000495.88824   -712918.18024     -3232.45624        28.34524
R02  20672051.33726    149112.95626       644.41726        36.20626
R18  22882481.98725    493648.23025      2135.48625        33.32925
R12  23184429.35424    716558.61224      3177.70524        26.91224
R11  21309599.27124    125705.70324       476.03624        25.10024
R01  19965376.35824   -456145.24224     -2055.33024        28.99224
R24  21584776.67026  -1066780.36426     -4762.74726        35.61426
R17  20541293.55826   -227996.01726     -1108.60326        39.26726
R08  23665549.78124   -878257.27024     -3965.38824        26.02524
E03  24557917.40824   -605901.05824     -2706.25224        26.35524
E07  26761956.48323    284746.94923      1261.79023        20.88623
E15  24945009.72924   -789605.04324     -3545.44024        27.54824
> 2024 10 27 14 53 19.9995763  0 19                      
G08  25076031.02525   -559918.38225     -2510.78225        33.07125
G10  20851809.59324    120615.68524       506.69624        27.93424
G15  24547750.54624   -991188.33324     -4401.74124        24.88424
G21  24858089.70325    351078.17825      1521.92525        34.59925
G23  20476682.88725   -447768.09625     -2021.11625        30.16025
G24  21471901.81224   -667671.06524     -3004.87724        27.88824
G32  21860882.82625    196398.22725       844.66725        31.42325
R10  23000928.78824   -716151.80724     -3233.88424        28.53824
R02  20671752.44426    149757.29526       645.02626        37.70126
R18  22881899.19125    495783.87825      2135.66625        33.57525
R12  23183651.99224    719741.09124      3179.47324        27.70724
R11  21309319.86524    126184.41624       475.55624        24.34624
R01  19965596.40525   -458202.54325     -2057.58725        29.67025
R24  21585476.98526  -1071541.41326     -4760.15026        37.46726
R17  20541322.33826   -229103.03626     -1107.93026        39.98726
R08  23666111.89224   -882218.44324     -3966.42924        25.67724
E03  24558250.77724   -608601.24424     -2706.00724        27.59624
E07  26761537.67323    285996.99423      1262.73023        20.75623
E15  24945502.28824   -793149.17424     -3544.65424        28.86824
> 2024 10 27 14 53 20.9995756  0 19                      
G08  25076298.14025   -562429.03125     -2511.16725        33.68025
G10  20851505.30324    121122.34624       507.25624        28.06424
G15  24548381.60924   -995591.07624     -4398.76024        26.19124
G21  24857592.94626    352600.44926      1522.15526        36.31326
G23  20476861.86425   -449791.42025     -2023.17425        30.75025
G24  21472260.36324   -670676.07324     -3006.31324        28.89724
G32  21860507.78525    197241.41425       843.20125        33.25825
R10  23001330.21024   -719386.29324     -3234.97324        29.41724
R02  20671427.16926    150400.73026       642.86126        37.55926
R18  22881287.61425    497918.59125      2135.17925        33.57825
R12  23182856.04324    722921.13824      3181.99024        28.01324
R11  21309057.54624    126662.24624       475.55724        25.27424
R01  19965764.88924   -460261.57024     -2060.28724        29.07124
R24  21586163.21026  -1076302.51126     -4760.49826        37.96226
R17  20541315.14326   -230210.29226     -1106.34026        39.77226
R08  23666642.52424   -886180.54224     -3968.03724        25.35324
E03  24558556.86524   -611305.97524     -2705.93524        28.36324
E07  26761089.18323    287246.13723      1262.80623        22.79623
E15  24945968.16625   -796693.58425     -3544.07625        31.00725
> 2024 10 27 14 53 21.9995750  0 19                      
G08  25076597.33325   -564940.35725     -2511.04925        34.19025
G10  20851226.79624    121629.71124       508.20124        28.83324
G15  24549045.94924   -999991.22624     -4396.44924        27.03124
G21  24857120.77326    354121.72926      1521.45026        36.91626
G23  20477062.72425   -451815.84025     -2024.87325        31.58925
G24  21472653.09224   -673682.67124     -3009.26024        26.97824
G32  21860164.52325    198083.47325       841.56025        34.92825
R10  23001753.51725   -722621.95925     -3236.38725        30.72725
R02  20671127.07726    151042.98026       642.04726        35.74426
R18  22880707.81625    500051.49025      2132.33725        34.46725
R12  23182081.37925    726099.77525      3179.29225        30.50325
R11  21308788.63325    127134.46325       471.81125        30.31125
R01  19965953.75824   -462321.74624     -2064.87024        26.90224
R24  21586880.01426  -1081066.52326     -4765.23826        39.10526
R17  20541329.83326   -231319.38526     -1108.90526        39.93126
R08  23667190.54524   -890150.25724     -3968.07324        23.57324
E03  24558892.93224   -614017.73424     -2705.93624        25.52324
E07  26760670.37324    288494.16524      1262.43124        24.78824
E15  24946461.32425   -800238.96425     -3544.31425        31.24525
> 2024 10 27 14 53 22.9995744  0 19                      
G08  25076893.52825   -567452.57925     -2512.53825        34.42925
G10  20850951.28725    122135.52025       506.49625        29.92725
G15  24549704.59324  -1004390.61224     -4398.24124        27.00724
G21  24856650.69926    355642.57926      1521.17126        37.17826
G23  20477261.48725   -453841.39625     -2026.58825        30.42625
G24  21473046.12024   -676694.68624     -3006.90924        26.12524
G32  21859827.25626    198925.06426       841.03526        36.85226
R10  23002171.42825   -725857.60625     -3235.59825        31.28925
R02  20670814.39325    151684.47025       639.48225        35.44125
R18  22880130.71525    502183.46625      2131.05725        35.15825
R12  23181323.50425    729276.51625      3174.78925        30.28125
R11  21308531.71025    127605.82925       471.18425        32.10725
R01  19966186.69724   -464384.07124     -2059.15124        25.05124
R24  21587598.31726  -1085831.24926     -4766.20626        39.20926
R17  20541364.30926   -232430.02026     -1111.59826        39.73626
R08  23667743.06223   -894117.02723     -3964.41223        20.74023
E03  24559226.00224   -616734.69324     -2706.39824        25.21524
E07  26760251.56324    289751.74724      1262.13424        27.40024
E15  24946952.68425   -803784.32625     -3544.94425        31.02725
> 2024 10 27 14 53 23.9995738  0 20                      
G08  25077194.81925   -569964.98425     -2512.43325        33.92525
G10  20850674.57824    122640.25524       505.70424        28.41424
G15  24550372.83124  -1008793.05124     -4402.60524        25.14724
G18  23622488.49224  -1085851.79524     -4769.93824        27.37024
G21  24856180.32426    357162.88726      1520.24926        36.35926
G23  20477468.34424   -455867.74324     -2027.65624        28.27824
G24  21473435.55024   -679700.25324     -3005.65724        23.65524
G32  21859489.09126    199765.81626       840.93526        36.94326
R10  23002601.03125   -729093.72025     -3235.28025        32.14325
R02  20670517.89825    152326.66225       643.56525        35.43425
R18  22879555.11426    504314.64126      2130.35126        36.05026
R12  23180533.25125    732452.03425      3172.60125        30.45825
R11  21308271.79025    128076.40125       469.79525        33.78425
R01  19966377.96424   -466447.58024     -2062.07024        25.33724
R24  21588307.32626  -1090596.66826     -4766.09326        38.82726
R17  20541386.49426   -233542.11126     -1113.26426        39.50326
R08  23668308.47123   -898084.01523     -3965.01623        21.29723
E03  24559562.96824   -619447.05324     -2707.16924        25.36624
E07  26759828.85624    291015.74424      1261.86324        27.32024
E15  24947446.14225   -807330.26625     -3545.91625        31.02825
> 2024 10 27 14 53 24.9995731  0 20                      
G08  25077461.93425   -572477.90525     -2512.40925        33.48325
G10  20850368.49024    123144.93524       502.52224        25.70824
G15  24550998.79724  -1013199.48824     -4404.19024        25.07424
G18  23623194.20324  -1090622.29524     -4771.34324        25.91224
G21  24855682.36926    358682.90326      1519.70826        35.79226
G23  20477639.82524   -457894.30024     -2027.87424        29.09524
G24  21473789.00524   -682708.11424     -3008.17824        25.87124
G32  21859120.64626    200606.82926       841.02426        35.63526
R10  23002994.35825   -732330.19125     -3235.70725        30.77225
R02  20670195.62125    152968.95825       643.58825        35.21125
R18  22878947.13425    506445.77425      2130.71525        34.90325
R12  23179717.21624    735628.99424      3176.58424        28.25924
R11  21307979.79325    128545.80825       468.65625        32.47925
R01  19966534.15624   -468509.84124     -2057.95924        23.64624
R24  21588991.75226  -1095360.59326     -4762.13926        38.57226
R17  20541377.20026   -234654.62226     -1112.48026        38.23426
R08  23668841.80223   -902052.07623     -3965.62623        19.90523
E03  24559869.05623   -622154.45523     -2707.46623        21.65923
E07  26759377.96824    292278.90824      1261.56624        23.96024
E15  24947912.91925   -810876.51425     -3546.65025        31.88525
> 2024 10 27 14 53 25.9995725  0 20                      
G08  25077760.22825   -574991.21825     -2512.44225        34.16325
G10  20850080.39024    123646.85424       506.38724        24.20924
G15  24551659.54023  -1017607.61623     -4403.61223        22.33723
G18  23623924.19824  -1095396.75324     -4772.40424        23.59624
G21  24855214.39326    360202.85826      1520.06626        37.76526
G23  20477838.58724   -459922.09224     -2028.41624        27.69924
G24  21474187.72924   -685718.42924     -3011.77924        28.16424
G32  21858786.97725    201447.50725       840.80925        34.08025
R10  23003419.46425   -735568.00625     -3238.25625        31.49125
R02  20669884.73726    153609.95126       640.20026        36.41226
R18  22878370.63425    508577.04025      2132.28125        30.71425
R12  23178962.93824    738810.06624      3182.87424        23.76924
R11  21307700.98624    129016.94824       468.84724        27.29924
R01  19966764.99624   -470570.30224     -2062.41124        24.30824
R24  21589649.19726  -1100125.82326     -4765.60626        35.85926
R17  20541409.27826   -235767.93426     -1113.47326        36.63226
R08  23669399.71623   -906021.38423     -3964.95523        19.84123
E03  24560195.23123   -624862.20623     -2707.43323        23.15623
E07  26758953.76223    293540.17023      1261.67323        21.04123
E15  24948408.77625   -814424.03925     -3547.48625        31.01725
> 2024 10 27 14 53 26.9995719  0 20                      
G08  25078060.02025   -577504.23125     -2512.67925        33.05325
G10  20849806.37924    124152.63724       505.78124        23.56424
G15  24552318.48423  -1022010.20123     -4405.24023        21.69323
G18  23624651.49423  -1100168.47023     -4771.67523        20.70723
G21  24854744.31926    361723.13426      1521.42426        36.21726
G23  20478047.54324   -461948.91124     -2026.03524        26.49224
G24  21474580.45724   -688729.33024     -3012.83924        26.82324
G32  21858447.61225    202287.87525       840.22225        33.76825
R10  23003848.76725   -738807.09725     -3240.02125        32.13825
R02  20669586.44326    154250.46026       639.87026        35.97826
R18  22877794.73225    510707.75725      2131.21825        30.42925
R12  23178188.27423    741993.50923      3183.82423        20.38323
R11  21307423.97724    129492.37024       470.60824        29.05824
R01  19966969.75424   -472632.21524     -2062.50524        24.64824
R24  21590386.08725  -1104893.38725     -4770.24225        34.78525
R17  20541444.05426   -236882.50326     -1114.91726        35.99226
R08  23669956.73024   -909989.56624     -3965.59624        24.59724
E03  24560532.19724   -627571.45424     -2707.67124        23.58224
E07  26758530.15523    294807.34623      1261.98023        22.87423
E15  24948905.83225   -817971.71225     -3548.03525        29.98125
> 2024 10 27 14 53 27.9995713  0 20                      
G08  25078360.11325   -580017.48025     -2511.94625        32.70825
G10  20849530.57023    124656.62223       505.77323        21.48223
G15  24552972.63122  -1026410.22422     -4403.93922        16.97722
G18  23625376.99223  -1104939.67323     -4771.13123        18.74523
G21  24854275.74326    363242.75326      1518.45126        37.78026
G23  20478249.60324   -463972.96924     -2025.38924        25.18724
G24  21474978.28224   -691740.60124     -3013.58524        26.22224
G32  21858109.44625    203127.94925       839.80125        33.79625
R10  23004266.07825   -742047.33225     -3241.60125        32.23825
R02  20669283.95226    154891.45026       641.16026        35.64926
R18  22877211.03625    512837.15825      2129.20525        30.39825
R12  23177415.10923    745178.12923      3183.69923        18.47423
R11  21307142.47224    129961.93624       470.24524        27.62724
R01  19967173.61324   -474693.81324     -2061.71324        24.95724
R24  21591099.29325  -1109660.81825     -4769.16925        33.49825
R17  20541478.83026   -237998.91626     -1118.61926        35.85326
R08  23670565.90823   -913955.00123     -3966.31223        22.71323
E03  24560865.86623   -630278.16123     -2706.83723        22.74423
E07  26758108.94723    296078.25223      1261.82523        22.53723
E15  24949401.08925   -821519.42325     -3548.29625        30.39125
> 2024 10 27 14 53 28.9995706  0 19                      
G08  25078631.12525   -582531.73725     -2514.18025        32.57025
G10  20849227.18023    125157.94423       505.25423        22.75423
G15  24553597.99823  -1030812.68323     -4403.22423        17.95723
G21  24853772.99126    364761.11526      1517.01826        37.14526
G23  20478422.28324   -465993.97124     -2025.92924        25.52224
G24  21475341.33124   -694750.98724     -3010.75824        27.05924
G32  21857740.40125    203967.84725       838.92925        33.36525
R10  23004656.40825   -745287.54925     -3240.63825        32.55725
R02  20668959.87725    155532.51425       641.25925        35.08325
R18  22876601.25825    514965.57925      2126.89925        30.22325
R12  23176601.77223    748363.66223      3183.58223        20.30423
R11  21306846.87724    130430.19624       469.40224        27.11724
R01  19967354.98824   -476754.43324     -2061.36124        24.87824
R24  21591782.82025  -1114427.61425     -4767.31325        33.58425
R17  20541465.93925   -239115.90125     -1117.99925        35.38125
R08  23671085.44923   -917920.39323     -3965.87823        21.98223
E03  24561165.05923   -632988.73323     -2706.81323        21.61723
E07  26757666.75324    297340.88924      1260.94724        23.98124
E15  24949864.26825   -825066.79925     -3548.22625        30.09025
> 2024 10 27 14 53 29.9995700  0 20                      
G08  25078924.92225   -585047.10125     -2515.79825        34.07925
G10  20848955.86824    125658.31824       504.40924        25.08624
G15  24554251.84523  -1035218.85723     -4402.88823        19.01123
G18  23626804.30422  -1114472.33722     -4768.83422        16.04622
G21  24853306.51426    366278.81426      1517.57926        38.35826
G23  20478623.44424   -468021.45524     -2025.96124        27.31624
G24  21475726.86424   -697763.67824     -3013.80024        28.53224
G32  21857401.93625    204806.80625       838.94925        35.20025
R10  23005095.90425   -748528.29025     -3240.62825        32.10225
R02  20668658.88526    156173.07326       639.96926        37.41426
R18  22876019.36125    517092.81125      2126.01025        29.59725
R12  23175831.90523    751548.19523      3182.79223        19.57223
R11  21306590.25424    130900.52224       464.38724        27.44324
R01  19967582.53024   -478816.56124     -2062.38924        29.42524
R24  21592485.23426  -1119194.58526     -4766.40426        36.35226
R17  20541492.92026   -240233.18126     -1117.57526        36.52126
R08  23671637.96624   -921884.91624     -3965.64324        24.34224
E03  24561502.02624   -635703.79424     -2707.52424        25.56224
E07  26757243.14623    298599.36923      1260.55123        22.92923
E15  24950363.72325   -828615.24925     -3548.30225        31.30125
> 2024 10 27 14 53 30.9995694  0 19                      
G08  25079225.91325   -587563.54825     -2516.98425        34.18325
G10  20848687.85424    126160.34124       501.94524        26.16324
G15  24554906.89223  -1039627.80523     -4404.15823        22.07123
G21  24852837.63926    367798.08926      1521.37526        39.09726
G23  20478831.20024   -470050.37724     -2029.35424        29.35724
G24  21476122.88925   -700776.61625     -3014.01525        29.68625
G32  21857062.87025    205645.41525       838.83225        35.29425
R10  23005519.21025   -751769.73225     -3241.08425        31.74525
R02  20668368.38626    156812.21626       636.68126        37.86926
R18  22875443.16024    519220.04924      2126.42224        29.49024
R12  23175056.04323    754731.19023      3181.84623        19.88223
R11  21306333.93224    131364.52824       463.16424        28.76624
R01  19967782.49225   -480878.42825     -2061.17825        30.38725
R24  21593198.74026  -1123961.99726     -4767.16026        37.10726
R17  20541532.49326   -241351.39626     -1117.96226        37.12926
R08  23672188.98524   -925849.46024     -3967.27224        24.59624
E03  24561839.59224   -638423.24024     -2707.85024        27.42024
E07  26756821.03823    299859.15423      1260.13923        22.94923
E15  24950856.28225   -832164.27625     -3548.75325        31.67825
> 2024 10 27 14 53 31.9995688  0 21                      
G08  25079522.40825   -590080.50325     -2517.38325        34.34825
G10  20848425.23624    126664.19824       501.04524        23.95724
G15  24555561.63823  -1044033.06323     -4401.81823        22.75323
G18  23628256.19922  -1124006.90622     -4767.26722        16.82522
G21  24852369.36326    369316.50326      1519.21426        38.63026
G23  20479040.15624   -472081.19024     -2032.22124        28.29824
G24  21476510.52124   -703790.39324     -3014.41124        29.41924
G28  24830109.47323    676486.38423      2861.01023        23.42823
G32  21856724.10525    206483.67225       838.14125        35.45325
R10  23005953.91025   -755012.16825     -3242.06025        31.61825
R02  20668061.09926    157449.62626       634.99526        37.50126
R18  22874856.76624    521346.49324      2126.21124        29.32524
R12  23174291.87222    757912.78322      3181.22222        17.01922
R11  21306070.71425    131828.80825       464.77825        29.57925
R01  19967986.95025   -482941.21725     -2063.71225        29.87225
R24  21593914.04426  -1128730.28026     -4767.87326        36.79926
R17  20541563.67126   -242470.70626     -1118.94626        36.35626
R08  23672750.49624   -929816.13624     -3967.05524        24.67624
E03  24562177.15924   -641136.66924     -2708.49824        27.93124
E07  26756399.53023    301119.16023      1260.48523        22.84023
E15  24951350.63925   -835713.53625     -3549.18625        31.79425
> 2024 10 27 14 53 32.9995681  0 20                      
G08  25079791.92125   -592597.46225     -2517.03825        34.41925
G10  20848116.44923    127170.80123       502.48123        23.15623
G15  24556185.20724  -1048434.06524     -4400.70724        23.90324
G21  24851871.10826    370833.80226      1516.90426        38.99326
G23  20479220.93024   -474111.51224     -2030.59324        27.66324
G24  21476872.37125   -706804.47525     -3014.91625        29.84725
G28  24829359.99223    679347.35023      2860.96023        22.46523
G32  21856355.06025    207321.67025       837.12725        35.40025
R10  23006343.94025   -758255.44225     -3243.43125        31.63425
R02  20667728.62926    158088.86726       640.61226        37.90126
R18  22874250.58625    523472.92425      2126.51525        30.19625
R12  23173503.71723    761092.97823      3179.67323        18.80523
R11  21305780.21525    132291.86725       462.49425        29.87325
R01  19968169.52425   -485003.49825     -2061.02025        30.41325
R24  21594600.86926  -1133499.17126     -4769.50726        37.28026
R17  20541558.27526   -243590.85626     -1120.23926        37.00826
R08  23673285.32624   -933784.94724     -3965.91524        24.11524
E03  24562482.04824   -643845.33324     -2708.96524        28.03224
E07  26755939.04923    302379.19523      1259.72723        22.42423
E15  24951815.61725   -839262.71425     -3549.50425        31.68925
> 2024 10 27 14 53 33.9995675  0 20                      
G08  25080085.11825   -595114.54025     -2516.36825        34.12525
G10  20847841.54023    127675.03123       501.52223        23.38023
G15  24556839.95324  -1052836.04224     -4401.34024        24.02624
G21  24851404.03126    372350.18526      1515.16026        38.04726
G23  20479428.68724   -476141.84024     -2030.28924        26.23124
G24  21477271.39424   -709818.53924     -3013.95724        28.85824
G28  24828633.29523    682204.97423      2859.54323        23.18823
G32  21856012.69725    208159.63425       838.25425        35.15525
R10  23006776.54025   -761499.45025     -3243.92625        32.18625
R02  20667411.44926    158728.53526       640.70426        37.60926
R18  22873676.48325    525598.38925      2125.36825        31.85825
R12  23172722.45823    764269.28923      3176.55223        21.90523
R11  21305506.80525    132754.62325       461.94325        30.86325
R01  19968364.98925   -487065.50825     -2060.46425        31.07125
R24  21595329.06526  -1138267.95926     -4768.00526        37.13026
R17  20541587.35526   -244712.22326     -1121.48826        37.30226
R08  23673849.83524   -937757.45724     -3967.05024        25.27924
E03  24562816.31624   -646554.52824     -2709.45624        27.02724
E07  26755518.14023    303636.38623      1259.28023        21.50223
E15  24952312.07425   -842812.80925     -3550.04225        32.33725
> 2024 10 27 14 53 34.9995669  0 21                      
G08  25080389.10825   -597632.02125     -2516.58725        32.82625
G10  20847563.93223    128181.40923       502.05323        22.35523
G15  24557495.00023  -1057238.32223     -4401.80123        22.14923
G18  23630415.60422  -1138314.66222     -4767.42622        17.26822
G21  24850932.75726    373866.63126      1516.71126        36.91326
G23  20479625.65024   -478169.74324     -2030.35324        25.30724
G24  21477666.52124   -712833.72424     -3015.52224        27.79324
G28  24827911.69424    685068.18424      2860.47824        23.94724
G32  21855670.63425    208997.29825       838.00625        33.72925
R10  23007216.03625   -764744.57425     -3244.28925        30.78825
R02  20667117.95226    159367.15926       639.21226        35.65326
R18  22873099.68325    527723.01025      2124.30425        31.65825
R12  23171944.19723    767442.02223      3175.63423        20.20623
R11  21305224.40025    133216.29625       462.38525        29.51325
R01  19968565.25024   -489128.62824     -2062.05924        29.01224
R24  21596041.07226  -1143036.95526     -4767.29226        36.76026
R17  20541599.64626   -245835.15726     -1123.56726        35.62026
R08  23674414.64424   -941724.91524     -3967.51924        24.22724
E03  24563152.68324   -649264.12024     -2709.58924        25.77624
E07  26755098.13123    304890.42723      1259.26123        22.41523
E15  24952793.84025   -846363.41525     -3550.50625        31.26925
> 2024 10 27 14 53 35.9995663  0 20                      
G08  25080688.60125   -600149.72325     -2517.44325        32.98625
G10  20847289.62223    128685.91523       502.01623        22.55223
G15  24558151.24623  -1061639.35323     -4400.74123        22.09823
G21  24850465.38126    375382.83426      1515.66726        37.79026
G23  20479840.00223   -480198.32723     -2032.80523        22.83623
G24  21478055.95124   -715850.05124     -3017.42124        25.94224
G28  24827190.39423    687928.17923      2861.40723        21.45523
G32  21855331.86925    209835.32125       838.45325        33.66825
R10  23007642.34125   -767989.12025     -3244.62925        30.36225
R02  20666827.45325    160005.72725       638.52325        35.47425
R18  22872519.58425    529847.58325      2124.70725        31.96125
R12  23171167.43523    770613.96223      3175.61423        20.72623
R11  21304956.38625    133677.23125       460.79025        30.68125
R01  19968778.40224   -491192.63824     -2064.33124        27.19424
R24  21596756.97626  -1147806.02126     -4768.48826        36.32726
R17  20541627.82725   -246957.99125     -1123.47625        35.43725
R08  23674972.55824   -945691.88424     -3966.05724        25.64924
E03  24563484.25424   -651970.16824     -2709.31324        23.61324
E07  26754679.32123    306141.09523      1259.22723        21.90423
E15  24953298.99125   -849913.64425     -3550.54625        30.72025
> 2024 10 27 14 53 36.9995656  0 20                      
G08  25080956.61525   -602667.99125     -2518.19125        33.49125
G10  20846987.73123    129189.40223       501.10823        19.86423
G15  24558778.41124  -1066040.73224     -4401.09524        24.02524
G21  24849968.02526    376898.31026      1515.41326        37.28626
G23  20480017.77923   -482229.12623     -2033.75323        22.19623
G24  21478422.89724   -718866.32024     -3017.44524        24.64724
G28  24826429.22123    690788.59123      2861.00423        22.82823
G32  21854961.32525    210672.73325       837.79125        34.41825
R10  23008046.46125   -771235.61925     -3247.15325        31.56525
R02  20666503.97726    160644.70126       639.49626        35.99226
R18  22871918.50025    531971.78825      2123.98425        32.71725
R12  23170361.29323    773788.68223      3176.24423        22.43523
R11  21304653.29525    134137.43625       459.30025        31.71225
R01  19968966.97224   -493256.03024     -2063.76224        26.42724
R24  21597442.00226  -1152576.68126     -4772.23526        37.27826
R17  20541637.72026   -248082.48026     -1126.32126        35.73326
R08  23675497.19424   -949658.74424     -3967.01124        25.56524
E03  24563793.93923   -654674.04723     -2709.30423        23.01923
E07  26754229.93224    307388.34524      1259.25224        24.73724
E15  24953767.26625   -853464.10225     -3550.72825        31.41025
> 2024 10 27 14 53 37.9995650  0 20                      
G08  25081254.30925   -605185.89025     -2517.33825        32.72425
G10  20846713.12123    129693.64623       500.56423        20.96023
G15  24559437.05623  -1070441.82623     -4400.74123        22.81223
G21  24849494.05326    378413.66226      1514.29026        35.89226
G23  20480225.83523   -484261.51723     -2033.16023        22.32123
G24  21478810.22924   -721877.80624     -3015.26024        24.21824
G28  24825694.72924    693648.89224      2860.70524        24.14124
G32  21854618.06325    211510.00525       836.52825        33.90025
R10  23008478.46225   -774482.57725     -3248.37525        32.10225
R02  20666192.79226    161283.79126       639.07826        36.37526
R18  22871341.99925    534095.92825      2124.39325        33.13725
R12  23169592.92523    776963.02323      3175.14123        22.39523
R11  21304387.97925    134596.77925       458.18225        32.76025
R01  19969137.85424   -495316.65324     -2062.87824        27.62624
R24  21598136.92126  -1157348.12226     -4772.68826        36.85126
R17  20541662.30326   -249207.52126     -1125.28326        35.62626
R08  23676054.50924   -953627.23324     -3969.61924        25.29324
E03  24564126.10924   -657374.29724     -2708.85924        24.02424
E07  26753811.42224    308637.68524      1259.38024        23.64824
E15  24954262.22425   -857014.01925     -3550.71325        30.71225
> 2024 10 27 14 53 38.9995644  0 20                      
G08  25081557.69925   -607704.49525     -2517.59425        32.76625
G10  20846439.41023    130198.56323       501.58723        22.05823
G15  24560090.90323  -1074842.64923     -4400.67223        22.12223
G21  24849032.07326    379929.19826      1515.97326        36.62126
G23  20480433.29123   -486294.87623     -2033.07123        21.63923
G24  21479206.25524   -724890.36024     -3014.85224        24.94724
G28  24824972.22924    696511.09724      2861.02124        24.03324
G32  21854274.80025    212346.15025       835.09825        34.59425
R10  23008911.36225   -777730.52725     -3248.33825        31.86325
R02  20665890.90126    161922.25926       638.90526        36.96626
R18  22870764.59925    536218.88625      2123.25925        33.09525
R12  23168822.45824    780138.50224      3175.09224        23.50224
R11  21304122.36325    135054.87325       457.60825        33.32525
R01  19969347.10924   -497374.18324     -2062.26024        28.24524
R24  21598844.43126  -1162118.94726     -4770.17726        37.13626
R17  20541694.08126   -250332.95226     -1125.66226        36.61826
R08  23676601.03024   -957600.34424     -3971.67324        26.15124
E03  24564463.37624   -660074.31024     -2708.84024        24.13224
E07  26753394.11124    309896.85324      1259.40024        24.68224
E15  24954759.57925   -860564.85025     -3550.77825        30.76125
> 2024 10 27 14 53 39.9995637  0 20                      
G08  25081827.51225   -610223.72125     -2519.59325        32.67125
G10  20846132.72323    130704.16423       500.61223        22.62123
G15  24560715.67023  -1079243.81623     -4400.92023        22.84623
G21  24848530.52026    381443.94826      1514.03926        37.66426
G23  20480610.46823   -488328.03923     -2032.09723        20.44323
G24  21479567.50524   -727900.72624     -3014.11624        25.71024
G28  24824215.55324    699375.81924      2859.63124        24.29924
G32  21853904.55726    213182.50226       835.84426        35.80126
R10  23009303.49125   -780978.24925     -3247.44025        32.31425
R02  20665567.12626    162560.51526       638.39626        37.51726
R18  22870154.22225    538341.67625      2123.14825        32.90225
R12  23168022.31223    783316.78123      3174.75023        22.07323
R11  21303825.56825    135512.79525       458.31525        32.66125
R01  19969527.28424   -499435.06824     -2064.15624        28.79324
R24  21599527.05926  -1166889.65226     -4769.83526        38.14526
R17  20541699.17826   -251459.43026     -1126.44226        37.01926
R08  23677128.96524   -961575.29324     -3969.81524        25.32224
E03  24564765.86624   -662772.76224     -2708.80724        26.38124
E07  26752945.32124    311155.73024      1259.36824        25.68724
E15  24955224.25825   -864115.25025     -3550.82125        31.45625
> 2024 10 27 14 53 40.9995631  0 20                      
G08  25082122.80825   -612744.35425     -2521.33125        33.20225
G10  20845857.81323    131210.07723       501.28323        20.21723
G15  24561374.31423  -1083641.24423     -4399.81123        22.20923
G21  24848060.14626    382958.95826      1515.74826        37.44426
G23  20480816.72623   -490360.48523     -2032.68823        21.71223
G24  21479969.52724   -730912.34324     -3002.94124        23.64824
G28  24823490.35523    702235.39223      2859.91623        20.74123
G32  21853564.29226    214018.64826       835.61826        37.69526
R10  23009733.09325   -784226.67625     -3247.59425        32.41325
R02  20665260.13826    163198.09426       636.77726        37.07626
R18  22869571.72525    540463.89125      2122.98425        33.66925
R12  23167241.95224    786496.91524      3175.20024        24.53024
R11  21303547.66125    135970.05025       457.90325        32.13625
R01  19969753.62724   -501498.49624     -2064.06024        26.73224
R24  21600237.86626  -1171660.50026     -4769.48726        38.60826
R17  20541756.43826   -252587.03226     -1128.28626        38.66326
R08  23677716.85824   -965542.20624     -3967.01324        24.85524
E03  24565096.53824   -665468.18224     -2708.91224        23.94924
E07  26752526.21124    312414.82224      1259.08424        26.41724
E15  24955719.81525   -867666.86525     -3551.16325        32.88325
> 2024 10 27 14 53 41.9995625  0 21                      
G08  25082426.79725   -615265.15525     -2521.56425        32.59325
G10  20845582.60322    131717.36022       501.54422        17.09822
G15  24562032.65923  -1088037.88823     -4399.62623        22.18223
G18  23635435.32924  -1171694.20024     -4769.33924        25.07124
G21  24847593.96926    384474.23326      1515.90726        35.61626
G23  20481023.88223   -492391.27423     -2032.31223        19.61023
G24  21480357.75823   -733925.90423     -3017.20123        21.92223
G28  24822762.45923    705094.00323      2859.26123        23.07023
G32  21853222.82926    214854.37526       835.32326        37.03426
R10  23010168.69225   -787476.53225     -3250.12225        33.27525
R02  20664966.94126    163834.70826       635.10026        36.21126
R18  22868996.12325    542585.48525      2121.65125        34.18125
R12  23166450.50024    789671.93824      3174.70724        26.69124
R11  21303286.24225    136426.52025       456.31625        33.10225
R01  19969944.89524   -503560.54924     -2066.06124        28.14924
R24  21600948.37526  -1176433.04526     -4773.16426        37.79126
R17  20541769.02926   -253715.06626     -1127.94926        38.75126
R08  23678314.94424   -969507.52424     -3970.95224        24.39624
E03  24565432.90523   -668162.71423     -2709.13623        21.76723
E07  26752119.39324    313673.89024      1259.10724        27.74124
E15  24956215.07225   -871218.84325     -3551.72925        32.36825
> 2024 10 27 14 53 42.9995619  0 21                      
G08  25082723.89225   -617786.10325     -2521.18325        32.35725
G10  20845303.79623    132216.99723       499.72723        21.43823
G15  24562693.10124  -1092440.82924     -4401.07524        24.48424
G18  23636169.82024  -1176464.08724     -4770.32524        24.82924
G21  24847123.59426    385988.60926      1515.15326        36.20526
G23  20481227.74123   -494420.61923     -2032.32423        19.25623
G24  21480754.38324   -736941.21124     -3018.19124        23.93724
G28  24822039.95923    707953.95823      2858.56023        20.48423
G32  21852884.66326    215688.64526       832.94526        38.36626
R10  23010598.59425   -790727.30225     -3251.45625        32.08725
R02  20664672.84526    164471.95826       638.60226        35.77426
R18  22868417.82425    544705.40025      2119.22425        33.55625
R12  23165655.75024    792845.39724      3172.76024        25.86324
R11  21303014.63025    136881.36525       454.92825        32.27525
R01  19970151.75224   -505627.02524     -2068.15324        27.42724
R24  21601657.08426  -1181206.53926     -4774.24626        38.36926
R17  20541798.40926   -254845.30126     -1131.00426        38.54126
R08  23678912.43024   -973479.25124     -3971.27924        23.68424
E03  24565772.86923   -670859.39523     -2709.32023        22.20023
E07  26751696.98624    314932.04724      1258.45624        27.99124
E15  24956710.32925   -874771.48125     -3552.54825        32.52025
> 2024 10 27 14 53 43.9995612  0 21                      
G08  25082991.30625   -620307.06225     -2520.47925        31.44825
G10  20844995.91023    132715.75223       499.21723        23.26023
G15  24563325.06424  -1096845.92124     -4401.35424        23.90624
G18  23636859.04323  -1181239.16423     -4772.59523        22.80823
G21  24846626.53825    387503.09425      1516.19225        35.42525
G23  20481405.81823   -496449.81123     -2033.58223        22.06323
G24  21481120.43023   -739956.76123     -3019.16923        23.42423
G28  24821285.38223    710816.12023      2857.53823        20.14723
G32  21852523.11326    216523.56426       835.31226        37.93026
R10  23010998.51725   -793978.65425     -3251.18025        33.07125
R02  20664343.37326    165108.96726       637.86026        36.05226
R18  22867802.35025    546824.23625      2118.02825        33.86825
R12  23164824.42624    796019.49224      3174.71124        24.84724
R11  21302729.52725    137335.91225       454.48125        33.11825
R01  19970328.92924   -507694.07424     -2068.90324        28.47824
R24  21602346.60726  -1185980.23526     -4773.25526        38.14026
R17  20541811.00026   -255975.57526     -1129.78426        38.92626
R08  23679420.57823   -977450.79023     -3967.37223        22.87923
E03  24566080.75623   -673560.04323     -2709.55723        21.09923
E07  26751249.09624    316190.00224      1257.86224        27.45724
E15  24957176.80625   -878324.61425     -3553.23225        31.72325
> 2024 10 27 14 53 44.9995606  0 20                      
G08  25083291.69825   -622828.73325     -2521.60125        31.70925
G10  20844718.60224    133213.91324       499.41624        24.86224
G15  24563985.20724  -1101251.20524     -4401.53224        23.89024
G18  23637585.74024  -1186014.39524     -4773.01024        23.86824
G21  24846160.06126    389016.16926      1512.51426        35.84526
G23  20481612.67523   -498480.09623     -2033.33623        21.20323
G24  21481517.65524   -742972.78224     -3018.84124        23.59824
G28  24820564.08123    713678.30923      2858.73423        21.02623
G32  21852184.94726    217358.31026       834.43626        38.56226
R10  23011422.12425   -797230.81125     -3252.42525        32.82325
R02  20664039.38326    165745.32726       635.23226        36.09526
R18  22867217.75525    548942.89125      2118.38825        33.80125
R12  23164047.06424    799197.99824      3174.11424        24.44124
R11  21302460.91325    137789.30625       453.69525        33.52625
R01  19970528.89124   -509761.76124     -2069.22824        27.99224
R24  21603057.11526  -1190754.33326     -4774.04726        37.85726
R17  20541840.97926   -257107.38826     -1132.26726        39.58626
R08  23679971.59723   -981422.35323     -3967.08823        21.41323
E07  26750831.18524    317448.08724      1257.79224        27.27124
E15  24957674.46125   -881877.64425     -3553.50925        32.35825
> 2024 10 27 14 53 45.9995600  0 20                      
G08  25083591.49125   -625350.97525     -2522.35425        32.22325
G10  20844448.48924    133711.79424       497.61524        28.81024
G15  24564643.55124  -1105654.94624     -4402.24124        24.44624
G18  23638316.63423  -1190785.58823     -4772.57223        23.25023
G21  24845687.58826    390529.36726      1514.00226        37.26826
G23  20481822.23023   -500510.95323     -2032.14423        21.67923
G24  21481913.98024   -745990.44224     -3019.52724        25.04324
G28  24819842.18123    716539.62323      2860.43723        20.35623
G32  21851846.18226    218192.71926       835.30126        39.61126
R10  23011860.42125   -800483.78225     -3253.56325        33.04125
R02  20663733.29526    166379.97526       632.91826        37.41826
R18  22866639.15525    551061.52925      2118.73925        33.84625
R12  23163279.59524    802370.75324      3175.50224        24.26924
R11  21302208.78825    138241.72425       452.35925        32.78025
R01  19970746.84024   -511829.34724     -2068.79624        28.26324
R24  21603770.92126  -1195528.94326     -4774.41326        39.25426
R17  20541874.55626   -258239.67126     -1131.83326        40.93826
R08  23680528.61123   -985394.41823     -3967.29923        22.66723
E07  26750415.67324    318706.09024      1257.98924        26.22724
E15  24958170.31825   -885431.08125     -3553.64525        33.39425
> 2024 10 27 14 53 46.9995594  0 21                      
G08  25083893.38225   -627873.72325     -2523.11125        32.44225
G10  20844177.77625    134209.30325       497.51325        30.55025
G15  24565303.09523  -1110062.16523     -4402.57023        23.18723
G18  23639045.42923  -1195553.82123     -4772.67523        20.69623
G21  24845219.01326    392042.68626      1514.05326        36.84826
G23  20482028.18723   -502543.64723     -2034.55023        21.36623
G24  21482311.50524   -749012.61324     -3020.41224        26.15824
G28  24819118.48223    719403.74023      2861.89723        21.34623
G32  21851505.01826    219028.11326       837.19526        39.10926
R10  23012281.62925   -803737.49725     -3253.91725        31.35525
R02  20663462.88226    167015.21126       634.37026        36.77726
R18  22866066.55225    553179.70925      2119.21225        33.50225
R12  23162520.82123    805542.18623      3175.55023        20.60323
R11  21301948.86825    138693.35025       451.32125        32.37525
R01  19970960.29224   -513897.17124     -2068.91924        28.68424
R24  21604486.82526  -1200303.57426     -4774.61026        38.30426
R17  20541908.43326   -259372.32126     -1132.32326        40.12726
R08  23681092.82123   -989367.50023     -3967.27923        21.76123
E03  24567084.16224   -681698.75724     -2710.21424        24.66724
E07  26749989.66824    319964.19024      1257.84024        25.63624
E15  24958664.07625   -888984.31725     -3553.48225        31.92225
> 2024 10 27 14 53 47.9995587  0 21                      
G08  25084164.39425   -630396.80125     -2522.76325        32.27225
G10  20843874.68625    134706.44625       495.51925        31.17625
G15  24565931.46023  -1114464.41523     -4402.73023        20.74723
G18  23639744.54523  -1200324.73323     -4772.85423        18.22123
G21  24844719.25925    393554.44725      1510.92525        34.96025
G23  20482207.76322   -504577.67722     -2033.91622        16.03422
G24  21482670.05724   -752036.84524     -3023.48224        25.57624
G28  24818364.80423    722269.41123      2860.64223        22.28023
G32  21851137.47226    219862.19526       834.05626        38.76726
R10  23012674.65725   -806991.82425     -3254.86025        32.64225
R02  20663124.11726    167651.03626       637.02926        36.61726
R18  22865459.17225    555297.46225      2117.57625        33.87025
R12  23161715.57823    808716.24423      3175.54923        23.02323
R11  21301655.67125    139143.87525       449.83125        33.37425
R01  19971135.37125   -515964.78025     -2068.23425        29.76525
R24  21605169.75226  -1205078.94326     -4775.88826        37.42726
R17  20541912.33026   -260506.32126     -1133.12226        40.69926
R08  23681615.65923   -993336.08823     -3968.06123        21.95823
E03  24567389.95023   -684418.31823     -2710.36923        23.12623
E07  26749543.57624    321221.86924      1257.74924        26.69124
E15  24959128.45525   -892538.17425     -3553.55525        30.72525
> 2024 10 27 14 53 48.9995581  0 21                      
G08  25084465.98625   -632920.02825     -2524.16125        32.59925
G10  20843599.47625    135203.30425       497.00625        32.21525
G15  24566590.10423  -1118863.52623     -4401.94323        22.92923
G18  23640477.23823  -1205098.20823     -4772.40323        18.42523
G21  24844257.57826    395066.84626      1512.69826        35.95926
G23  20482412.52122   -506613.06822     -2033.47722        13.80722
G24  21483070.88024   -755060.31624     -3023.92224        24.87024
G28  24817642.30423    725128.60223      2860.17823        22.50723
G32  21850801.10526    220695.12526       832.12126        39.42926
R10  23013104.55925   -810246.83425     -3254.51525        31.22925
R02  20662806.93626    168286.90526       636.29126        36.22226
R18  22864878.77425    557413.85225      2115.90325        32.79125
R12  23160941.81423    811893.06123      3175.86123        19.15223
R11  21301392.45325    139593.94625       450.44125        32.85725
R01  19971346.12524   -518031.50324     -2067.08524        28.97924
R24  21605899.14726  -1209853.76826     -4774.49126        37.81926
R17  20541943.80826   -261641.37326     -1135.21626        39.93426
R08  23682178.36923   -997305.16023     -3968.44123        21.40423
E03  24567724.21824   -687128.85224     -2710.62824        25.47224
E07  26749124.16724    322479.91824      1257.83024        26.52524
E15  24959624.31225   -896091.97425     -3553.64725        31.31725
> 2024 10 27 14 53 49.9995575  0 21                      
G08  25084767.87725   -635444.34025     -2524.62225        32.19825
G10  20843324.56725    135699.99125       497.11225        32.68125
G15  24567247.24923  -1123264.09723     -4401.39723        20.85523
G18  23641206.63323  -1209873.71223     -4771.98123        18.92723
G21  24843787.20426    396579.69326      1514.29626        35.56426
G23  20482627.77222   -508689.93222     -2033.50322        14.98222
G24  21483470.50324   -758088.22624     -3024.21324        25.06924
G28  24816917.70523    727986.76123      2858.99523        21.83423
G32  21850465.03826    221527.63526       832.44026        39.85626
R10  23013532.96325   -813502.60125     -3255.14425        31.47725
R02  20662505.04526    168921.18226       633.57426        36.54626
R18  22864305.57125    559529.15825      2114.34725        33.26525
R12  23160161.75423    815069.41323      3173.80723        18.81223
R11  21301120.24125    140043.12725       449.30625        33.07325
R01  19971556.87924   -520099.25524     -2067.11424        29.12024
R24  21606599.76226  -1214630.30026     -4777.67826        37.92226
R17  20541974.98726   -262778.55526     -1138.56326        39.61226
R08  23682728.78823  -1001273.21123     -3968.41723        21.48923
E03  24568059.68624   -689839.23724     -2710.88024        25.66524
E07  26748707.75524    323737.98724      1258.04624        27.50524
E15  24960122.56725   -899646.15125     -3553.90025        31.26625
> 2024 10 27 14 53 50.9995568  0 21                      
G08  25085034.99225   -637969.57725     -2525.68425        32.14925
G10  20843023.27525    136195.43025       495.22325        32.90325
G15  24567875.91323  -1127667.41523     -4400.38323        21.51923
G18  23641904.25023  -1214650.82723     -4772.48623        18.06723
G21  24843288.05026    398090.72626      1512.22326        35.84126
G23  20482813.64322   -510723.24622     -2033.48122        16.25822
G24  21483845.24324   -761112.95224     -3023.53524        25.41924
G28  24816161.62923    730843.97823      2858.84323        20.45723
G32  21850097.79226    222360.39426       833.81326        39.74026
R10  23013928.38925   -816759.54925     -3257.71825        31.29525
R02  20662189.66426    169554.23926       629.94526        36.65626
R18  22863699.09025    561643.58825      2113.14525        32.74025
R12  23159357.11123    818244.98023      3173.06523        19.22923
R11  21300833.04025    140491.25225       448.24325        32.98525
R01  19971720.26624   -522166.96524     -2067.12724        29.35124
R24  21607301.27726  -1219408.02526     -4779.37926        37.84326
R17  20541942.30926   -263917.22426     -1140.09526        39.04526
R08  23683258.22223  -1005241.71923     -3968.65523        22.62023
E03  24568366.07424   -692550.33224     -2711.28924        25.31024
E07  26748252.37024    324994.93224      1257.89424        28.02524
E15  24960587.24525   -903201.28225     -3554.50825        31.33025
> 2024 10 27 14 53 51.9995562  0 21                      
G08  25085331.78625   -640494.54025     -2524.16525        32.00525
G10  20842751.06425    136689.99325       493.99725        32.90525
G15  24568533.95823  -1132071.17223     -4398.99323        19.57123
G18  23642628.84923  -1219423.42423     -4772.45623        18.80823
G21  24842821.57225    399601.23225      1509.91725        35.21025
G23  20483006.71022   -512756.88722     -2033.48122        15.94222
G24  21484240.37024   -764139.34224     -3022.44824        25.21524
G28  24815434.33223    733700.13323      2858.17123        22.33923
G32  21849754.53026    223193.39826       834.09426        39.70626
R10  23014365.78625   -820018.06125     -3259.66425        31.70125
R02  20661879.07926    170186.02726       628.75726        36.23626
R18  22863123.78925    563757.00025      2112.18025        33.43525
R12  23158578.84923    821420.21623      3173.22923        20.46723
R11  21300576.71825    140938.45925       446.75725        33.52125
R01  19971926.22324   -524235.28224     -2067.83924        29.26824
R24  21608000.09326  -1224185.34626     -4777.26526        37.12626
R17  20542001.06926   -265056.04926     -1139.40526        39.06526
R08  23683820.03324  -1009212.51124     -3969.36624        23.98024
E03  24568702.14124   -695261.32624     -2711.41724        24.23024
E07  26747835.05924    326251.62424      1257.27524        28.00424
E15  24961083.40225   -906753.45025     -3555.25425        30.39025
> 2024 10 27 14 53 52.9995556  0 20                      
G08  25085631.87825   -643019.57625     -2524.29025        31.47825
G10  20842474.05525    137184.73325       494.49325        32.69025
G18  23643361.24223  -1224191.65423     -4771.74023        19.24823
G21  24842355.39526    401111.17726      1509.78826        36.07426
G23  20483207.27123   -514790.54123     -2033.48123        17.90423
G24  21484636.09624   -767160.87224     -3027.30924        25.47024
G28  24814707.63523    736557.28723      2858.47423        20.57623
G32  21849416.06426    224024.82126       830.76526        39.96026
R10  23014792.99025   -823277.10325     -3259.69225        31.07225
R02  20661583.78326    170819.49626       633.58426        37.11426
R18  22862546.68825    565870.55325      2113.13625        33.17225
R12  23157793.99323    824593.53723      3173.63123        19.40023
R11  21300304.80625    141384.01025       444.65925        32.96725
R01  19972119.29024   -526304.48024     -2069.57624        28.85524
R24  21608712.10026  -1228963.95526     -4779.67826        37.63426
R17  20542028.94926   -266195.69326     -1139.71126        39.56326
R08  23684378.84624  -1013184.59924     -3968.92124        23.98624
E03  24569037.01024   -697972.94024     -2711.60124        24.55424
E07  26747420.74624    327508.22824      1256.63924        28.55824
E15  24961583.15625   -910303.94725     -3555.98925        31.43025
> 2024 10 27 14 53 53.9995550  0 19                      
G08  25085927.17425   -645545.23625     -2525.48725        31.33325
G10  20842197.04725    137679.61225       495.68625        31.98125
G18  23644098.13123  -1228961.40023     -4771.27023        18.52423
G21  24841889.21826    402621.04126      1509.88026        35.54226
G24  21485025.82624   -770189.38924     -3030.77224        25.60624
G28  24813983.33723    739415.62323      2859.40423        22.39923
G32  21849076.99926    224855.84826       830.16826        39.53626
R10  23015233.08625   -826536.52625     -3259.27525        31.95425
R02  20661283.69126    171454.01326       636.06026        36.88126
R18  22861969.88825    567983.88325      2113.19925        32.60725
R12  23157005.23923    827763.84523      3173.45823        20.68323
R11  21300030.19625    141828.37825       443.13025        32.77825
R01  19972324.94724   -528373.81824     -2069.49524        29.16624
R24  21609417.51226  -1233743.63026     -4782.67926        36.47426
R17  20542069.42126   -267336.41026     -1141.42326        39.29726
R08  23684931.66324  -1017158.31124     -3968.40524        23.82224
E03  24569373.07724   -700685.19324     -2711.80324        24.66024
E07  26746998.63824    328764.40324      1255.86224        28.70024
E15  24962078.11325   -913855.57425     -3556.80725        30.55925
