     4.01           OBSERVATION DATA    M                   RINEX VERSION / TYPE
GnssLogger          Google 14           20241027 154737 UTC PGM / RUN BY / DATE
Google GnssLogger                                           MARKER NAME
Unknown                                                     MARKER NUMBER
Unknown             Unknown                                 OBSERVER / AGENCY
Unknown             GnssLogger          v3.1.0.3            REC # / TYPE / VERS
Unknown             Unknown                                 ANT # / TYPE
        0.0000        0.0000        0.0000                  ANTENNA: DELTA H/E/N
G    4 C1C L1C D1C S1C                                      SYS / # / OBS TYPES
R    4 C1C L1C D1C S1C                                      SYS / # / OBS TYPES
E    4 C1C L1C D1C S1C                                      SYS / # / OBS TYPES
  2024    10    27    15    47   37.0000000     GPS         TIME OF FIRST OBS
 7 R01  1 R02 -4 R03  5 R11  0 R12 -1 R17  4 R18 -3         GLONASS SLOT / FRQ #
Google Pixel 6a (Android 14) HW Year: 2020 HW Model:        COMMENT
Broadcom, BCM4776, GLL ver. 154.20.24 587347                COMMENT
                                                            END OF HEADER
> 2024 10 27 15 47 37.9774381  0 3                      
G10  20305786.49705     -7945.26905      -806.80205        34.68405
G25  23480529.26804     18402.86904      2083.59604        27.82204
G32  21019102.17805      -896.73205       -84.67205        30.71405
> 2024 10 27 15 47 38.9774375  0 19                      
G02  24912653.12923     11040.66423      1258.02023        17.98423
G10  20305761.91405     -8752.18005      -807.62605        33.90405
G12  23690728.75022      6376.35622       648.58522        16.44522
G21  23700725.62924      1413.54324       145.67024        24.82224
G23  21559687.93922    -33576.44822     -3410.83422        17.29922
G24  23230108.13123    -24826.37623     -4436.13823        21.48923
G25  23479950.36914     20486.20414      2083.04314        27.01514
G28  22593236.22823     24641.14623      2270.38823        22.71123
G32  21018943.58805      -981.15405       -84.13905        31.36905
R02  19928175.71124     -2206.33424      -213.31324        27.09624
R18  21688433.81024     -3816.22324      -385.80524        26.87924
R12  20911829.84125     16965.56725      1986.95225        32.28425
R11  21279518.39623    -21904.33123     -2392.30023        21.66223
R01  20879257.99024    -20781.39524     -2912.23424        27.25724
R17  21475377.00625    -36690.90325     -3789.24325        31.10325
E08  23495586.34424    -11504.18024     -1179.75824        25.20724
E13  24314237.70324    -31339.08424     -2385.23124        25.32124
E25  26916064.49624     -3192.26724      -374.14624        23.70724
E26  25860417.60524      5440.80024       487.20624        23.63824
> 2024 10 27 15 47 39.9774369  0 19                      
G02  24912251.70723     12294.83323      1256.68523        17.62723
G10  20305735.53205     -9560.23405      -808.86305        33.19405
G12  23690413.36822      7026.30722       648.63622        15.71122
G21  23700525.96714      1554.83514       143.39314        25.68014
G23  21560160.41222    -36978.41522     -3408.93722        17.21122
G24  23230772.47123    -29259.92323     -4440.06123        21.39823
G25  23479381.96214     22568.74314      2082.24614        27.34314
G28  22592622.85324     26916.26524      2268.44424        23.74824
G32  21018781.10105     -1066.65505       -86.61005        30.60905
R02  19928018.02014     -2423.43514      -218.53414        27.13914
R18  21688328.88214     -4202.39114      -387.90114        27.01514
R12  20911279.72225     18951.38625      1984.34125        31.29825
R11  21279782.51323    -24295.42823     -2395.14523        22.82723
R01  20879633.63024    -23696.79624     -2914.38024        27.41924
R17  21475903.44125    -40480.87125     -3791.27525        30.08725
E08  23495633.71124    -12682.63924     -1182.30724        25.22624
E13  24314516.51014    -33726.61514     -2389.32514        24.23414
E25  26915956.87124     -3567.70224      -377.15024        23.52824
E26  25860142.69624      5926.70124       483.45124        23.51624
> 2024 10 27 15 47 41.0004362  0 19                      
G02  24911802.01822     13608.29122      1255.53722        17.30822
G10  20305680.67005    -10388.90505      -810.55605        33.25905
G21  23700300.22424      1697.33024       135.60024        26.37324
G23  21560615.79622    -40469.45722     -3408.77722        16.93722
G24  23231426.91823    -33799.75023     -4442.54923        22.74523
G25  23478760.79204     24697.34104      2080.80904        27.14404
G28  22591970.80423     29236.10323      2268.23523        23.46123
G32  21018589.23305     -1155.85905       -88.13505        31.05805
R02  19927834.54714     -2647.04014      -218.08414        26.74214
R18  21688159.50024     -4599.48824      -389.73324        26.52324
R12  20910694.52725     20980.94225      1983.30525        31.13325
R11  21280032.54024    -26752.27924     -2395.11824        24.17824
R01  20879961.00424    -26681.09324     -2918.26124        27.91324
R17  21476421.18325    -44360.11925     -3792.95325        30.06125
E03  25727460.25024     -9000.56624     -2979.43624        29.08724
E08  23495657.39524    -13887.09724     -1182.38924        25.40124
E13  24314772.23324    -36170.61324     -2389.74924        24.40224
E25  26915821.36524     -3954.16424      -377.73224        23.54924
E26  25859838.70623      6421.28623       483.36123        23.09423
> 2024 10 27 15 47 42.0004356  0 21                      
G02  24911370.31722     14857.96222      1253.78022        17.49422
G10  20305653.98805    -11199.35805      -810.37905        32.16405
G12  23689762.51922      8350.20322       648.78122        17.30522
G21  23700083.17414      1836.16214       136.58014        26.10014
G24  23232090.95823    -38239.09423     -4442.32023        23.34523
G25  23478179.79414     26777.84514      2081.88214        25.44414
G28  22591358.02814     31506.78214      2268.40314        25.04614
G32  21018421.35005     -1243.25905       -86.94905        30.74805
R02  19927729.02024     -2865.96024      -218.08124        26.18224
R18  21688043.78024     -4988.84124      -389.77824        27.16724
R12  20910124.62225     22964.15025      1983.49525        31.86325
R11  21280303.85224    -29147.29324     -2394.77224        24.61424
R01  20880338.14324    -29598.43624     -2917.56224        27.65624
R17  21476963.20824    -48152.82924     -3793.00124        29.38124
R03  22728781.39223      7370.15023      1832.82623        22.05423
E02  26885610.97924      6101.98524      1516.76024        23.67224
E08  23495705.96124    -15063.19324     -1182.29624        25.65324
E13  24315042.04724    -38561.02924     -2389.83024        24.57824
E15  26770356.06823    -16810.36523     -4178.64023        20.59423
E25  26915712.84024     -4332.09924      -377.71924        24.24324
E26  25859566.79423      6904.74723       483.42023        22.75523
> 2024 10 27 15 47 43.0004350  0 22                      
G02  24910935.31823     16112.83323      1254.23223        17.50423
G10  20305629.70505    -12009.43405      -809.99405        32.44005
G12  23689472.32023      8994.66123       646.82923        19.39723
G21  23699874.21824      1975.45024       136.70424        25.41824
G24  23232754.39923    -42677.94423     -4441.09323        23.33923
G25  23477612.88724     28859.81924      2082.75624        24.75524
G28  22590744.05324     33777.02624      2270.82124        26.08424
G32  21018260.66105     -1330.08005       -86.66905        30.51705
R02  19927542.25014     -3084.16314      -216.85614        23.77414
R18  21687940.95114     -5377.93014      -388.68114        26.88414
R12  20909582.59725     24947.62725      1983.34125        32.50225
R11  21280572.46614    -31542.07014     -2395.16814        26.17814
R01  20880701.19124    -32515.14024     -2915.51424        27.83824
R17  21477474.35425    -51945.08125     -3791.70325        30.01225
R03  22728247.76123      9202.82423      1831.36423        21.74223
E02  26885146.30123      7619.42523      1515.02723        21.11723
E03  25728255.59913    -14967.40613     -2978.99513        22.60813
E08  23495760.82324    -16241.52324     -1181.42324        27.29424
E13  24315316.05723    -40950.26923     -2389.58223        23.03723
E15  26770987.73113    -20988.80313     -4178.79413        20.09913
E25  26915604.01524     -4709.47524      -377.18524        24.93124
E26  25859295.48213      7388.92513       484.33113        23.26313
> 2024 10 27 15 47 44.0004344  0 22                      
G02  24910514.11022     17368.44522      1253.65822        17.47822
G10  20305604.52305    -12819.13205      -810.14705        32.11505
G12  23689160.53523      9644.61223       647.74323        22.61323
G21  23699665.26324      2114.94424       135.98124        24.06924
G24  23233419.63823    -47117.34623     -4441.40623        22.54223
G25  23477034.58724     30941.68024      2080.58724        25.71424
G28  22590127.08014     36047.75714      2267.06514        25.69314
G32  21018091.27805     -1416.31305       -86.73505        29.50605
R02  19927414.23823     -3304.75723      -215.48023        23.10723
R18  21687842.91914     -5767.07114      -387.46614        26.39414
R12  20909037.87425     26931.35125      1983.38425        32.14425
R11  21280809.30224    -33936.64524     -2391.22424        25.90424
R01  20881068.13724    -35431.13924     -2916.25924        27.78624
R17  21478002.28824    -55737.17224     -3792.07124        29.41424
R03  22727752.20523     11034.46323      1831.36423        21.20423
E02  26884675.62623      9135.61723      1514.85123        18.51423
E03  25728643.83123    -17958.94423     -2978.85523        22.16023
E08  23495794.10014    -17421.84814     -1180.28414        27.66614
E13  24315599.96024    -43338.80024     -2388.52424        24.06724
E15  26771574.12523    -25168.74723     -4180.43023        19.38823
E25  26915493.99114     -5086.38014      -376.72014        24.22614
E26  25859019.67313      7873.41413       484.70213        22.46013
> 2024 10 27 15 47 45.0004338  0 21                      
G02  24910095.30023     18621.72523      1254.63423        18.88823
G10  20305577.24105    -13629.52105      -811.13105        32.47705
G12  23688849.35123     10286.98423       646.64923        23.08623
G21  23699462.90324      2253.88324       144.75224        24.92424
G24  23234079.78123    -51563.37323     -4440.65023        22.40023
G25  23476455.38824     33023.16524      2079.75124        25.47524
G28  22589517.60224     38320.81724      2270.80724        25.31724
G32  21017926.69205     -1503.05305       -87.95905        30.27105
R02  19927276.63323     -3522.98223      -216.77823        22.38923
R18  21687729.89714     -6157.53614      -389.97514        25.92014
R12  20908476.06325     28914.29225      1982.72825        31.53625
R11  21281076.41714    -36332.37014     -2396.40414        26.20014
R01  20881404.80424    -38347.61724     -2916.53824        27.87424
R17  21478511.63624    -59530.19224     -3793.73424        28.83224
E02  26884207.95023     10652.68823      1514.87723        18.35223
E03  25729029.06423    -20938.11323     -2979.11823        21.08523
E08  23495842.96614    -18602.68114     -1181.71914        27.72414
E13  24315872.47224    -45728.18224     -2390.10524        25.30624
E15  26772193.79623    -29348.73623     -4179.71123        20.29923
E25  26915386.06624     -5464.00024      -377.50524        24.58024
E26  25858746.86223      8357.19223       483.13723        22.06823
> 2024 10 27 15 47 46.0004332  0 21                      
G02  24909681.88623     19875.69223      1253.65823        18.66723
G10  20305556.55605    -14440.84505      -812.02905        32.65505
G12  23688546.26124     10932.39424       644.46924        24.36524
G21  23699258.44523      2393.36223       137.47223        23.22823
G24  23234741.12323    -55997.64323     -4439.65023        23.25923
G25  23475880.68624     35107.83624      2078.37624        25.46124
G28  22588906.92524     40596.96724      2273.29124        26.14524
G32  21017759.10805     -1590.38805       -87.80105        30.00105
R02  19927135.43123     -3742.87923      -215.64523        21.99123
R18  21687656.14824     -6544.76824      -391.09124        26.06924
R12  20907921.44725     30896.07525      1981.23325        31.72625
R11  21281372.91224    -38729.33824     -2402.99424        25.73524
R01  20881778.64514    -41264.83514     -2916.54214        27.02514
R17  21479066.25224    -63324.23424     -3795.42024        28.79024
E02  26883744.47123     12166.11423      1516.09723        18.83423
E03  25729411.59913    -23892.33513     -2977.26313        21.96513
E08  23495885.53714    -19784.08214     -1181.95514        26.87514
E13  24316144.68324    -48118.32924     -2388.87524        24.35724
E15  26772808.67023    -33529.02623     -4180.20523        20.85823
E25  26915279.34024     -5842.61824      -378.85924        23.96724
E26  25858476.44913      8839.98913       482.45013        23.09513
> 2024 10 27 15 47 47.0004326  0 21                      
G02  24909264.27523     21130.92623      1253.65823        19.05923
G10  20305530.17405    -15253.29905      -812.79705        32.69205
G12  23688240.47224     11576.54224       645.95324        25.71924
G21  23699055.18523      2533.01823       135.67023        23.20223
G24  23235405.76323    -60430.27123     -4439.47523        23.15323
G25  23475317.97624     37194.25124      2081.37924        24.82624
G28  22588288.15414     42865.51014      2265.14014        26.99514
G32  21017603.51605     -1678.74605       -88.67705        29.68005
R02  19926995.72823     -3962.76423      -215.59123        22.67223
R18  21687532.03424     -6938.27424      -389.78324        24.51324
R12  20907370.42925     32876.64625      1980.38325        32.15025
R11  21281640.62714    -41127.99214     -2401.73414        26.15614
R01  20882152.18724    -44182.95324     -2918.02624        27.89124
R17  21479584.89324    -67119.49324     -3795.63624        27.96624
E02  26883275.59623     13682.31623      1516.09723        18.81323
E03  25729796.53323    -26869.89723     -2978.74423        23.38123
E08  23495934.10324    -20966.26524     -1182.62424        26.43024
E13  24316420.49224    -50509.69124     -2391.71024        25.38324
E15  26773425.34323    -37711.27023     -4181.19023        20.70823
E25  26915169.91613     -6222.29113      -380.06913        23.39213
E26  25858203.93813      9321.94813       481.53713        23.30813
> 2024 10 27 15 47 48.0004319  0 20                      
G10  20305477.71005    -16065.86705      -812.85805        32.82005
G12  23687904.40514     12220.65114       643.29014        25.38114
G21  23698816.85024      2671.83524       135.92524        24.54424
G24  23236041.62323    -64867.21223     -4438.81723        23.09623
G25  23474708.49724     39274.73724      2077.77024        24.94424
G28  22587651.39414     45134.25814      2264.43314        26.59214
G32  21017414.04704     -1766.92504       -88.11404        29.36804
R02  19926825.14623     -4184.17323      -215.45723        20.76823
R18  21687354.25724     -7333.95924      -392.42824        25.19724
R12  20906789.73125     34856.96325      1980.06525        32.16725
R11  21281902.64514    -43526.91714     -2399.65014        25.93314
R01  20882523.93024    -47100.91124     -2917.80124        27.69024
R17  21480066.35924    -70915.06224     -3795.40724        28.02924
E02  26882776.74123     15198.52123      1516.09723        18.76123
E03  25730153.88523    -29848.67723     -2979.13923        22.68423
E08  23495954.18924    -22148.18424     -1181.59124        27.23624
E13  24316667.82114    -52900.94114     -2390.28514        26.29214
E15  26774012.33723    -41893.89923     -4181.62023        21.53423
E25  26915031.11213     -6602.00313      -379.77913        23.32513
E26  25857900.84813      9803.72113       481.72613        23.33813
> 2024 10 27 15 47 49.0004313  0 20                      
G10  20305450.72905    -16878.09705      -811.77005        32.88205
G12  23687603.11414     12864.84114       644.09514        25.05214
G21  23698610.59324      2808.64424       135.88924        24.53924
G24  23236705.36423    -69312.25223     -4438.74723        22.37823
G25  23474129.29814     41355.52214      2082.19914        24.85514
G28  22587047.61214     47403.21814      2271.86914        25.54714
G32  21017249.76105     -1854.74705       -87.90605        29.79305
R02  19926685.14323     -4407.63923      -216.08623        18.57423
R18  21687261.32114     -7728.45614      -396.35014        25.70314
R12  20906240.81125     36837.37025      1980.56925        31.97025
R11  21282137.68314    -45925.96214     -2395.72214        25.84414
R01  20882886.67824    -50018.44124     -2917.17324        27.27324
R17  21480602.08924    -74710.44524     -3794.60624        28.60124
E02  26882311.46323     16713.46323      1516.09723        18.64723
E03  25730539.41823    -32828.55623     -2979.46423        21.14723
E08  23495991.96324    -23329.73924     -1181.19124        27.34024
E13  24316943.33024    -55292.01924     -2390.17424        26.27824
E15  26774628.41023    -46077.14023     -4181.87423        20.86523
E25  26914922.58714     -6981.40114      -379.28314        24.13714
E26  25857628.33613     10285.91913       482.36613        22.22913
> 2024 10 27 15 47 50.0004307  0 20                      
G10  20305422.54805    -17691.44105      -814.11305        33.15705
G12  23687298.82424     13507.94924       640.01924        23.74624
G21  23698402.83724      2944.70924       136.57824        24.70924
G24  23237370.00323    -73755.95123     -4438.98523        22.87623
G25  23473553.99724     43435.45224      2080.91324        24.63024
G28  22586430.34014     49671.46014      2268.39014        26.50714
G32  21017082.77605     -1943.22105       -89.09805        30.15205
R02  19926543.94123     -4631.38723      -218.85123        18.50823
R18  21687156.09424     -8120.03324      -396.84824        26.50824
R12  20905702.38305     38816.73705      1979.26005        31.23105
R11  21282419.78724    -48318.63324     -2400.04224        25.86924
R01  20883171.18114    -52936.54014     -2914.35814        26.79414
R17  21481153.70724    -78507.00024     -3797.51824        29.17124
E02  26881830.29623     18228.07023      1515.12123        18.27723
E03  25730925.55123    -35809.52323     -2979.48423        19.00523
E08  23496036.03314    -24511.73614     -1181.94814        28.04214
E13  24317218.54024    -57684.16724     -2392.90024        26.03424
E15  26775243.28523    -50260.85323     -4181.56623        21.03323
E25  26914815.86123     -7361.41623      -379.76623        22.54823
E26  25857354.92623     10767.38323       481.84823        22.39323
> 2024 10 27 15 47 51.0004301  0 19                      
G10  20305399.16505    -18505.78405      -814.90505        32.95405
G12  23686997.83323     14150.71223       638.79023        23.44123
G21  23698193.28224      3079.42824       137.97724        25.35724
G24  23238034.04423    -78197.29023     -4439.52123        22.31123
G25  23472971.20024     45514.55924      2074.11924        24.58424
G28  22585817.86424     51938.80424      2265.00624        25.90224
G32  21016919.68905     -2032.61705       -89.84105        30.32105
R02  19926416.52923     -4847.49123      -221.29023        20.41823
R18  21687049.66814     -8516.84614      -398.51514        24.43114
R12  20905143.27005     40794.74705      1977.61505        31.72705
R11  21282673.41224    -50718.45524     -2405.48724        25.50324
R01  20883579.49924    -55855.71724     -2919.60224        27.70824
R17  21481685.23925    -82304.70425     -3797.96325        29.70825
E02  26881358.12323     19744.64223      1515.12123        17.60423
E08  23496080.40214    -25694.68514     -1183.07314        27.95914
E13  24317490.75124    -60077.13824     -2393.04824        24.99224
E15  26775856.06123    -54444.95523     -4181.66923        20.78923
E25  26914710.03424     -7743.11624      -380.61524        24.10524
E26  25857080.31623     11247.35223       479.44623        22.75023
> 2024 10 27 15 47 52.0004295  0 19                      
G10  20305377.87905    -19320.48005      -814.65305        32.53905
G12  23686701.63823     14795.71823       640.15423        23.17923
G21  23697974.13424      3214.87724       135.03424        23.81724
G24  23238696.58523    -82638.82523     -4439.73323        21.72923
G25  23472377.31124     47592.41024      2079.27324        23.57624
G28  22585217.67924     54205.32824      2263.11024        25.88124
G32  21016759.90004     -2122.09704       -89.11104        28.92204
R02  19926272.62923     -5065.81123      -224.19523        18.43923
R18  21686981.01524     -8916.48124      -397.99624        23.55524
R12  20904594.05105     42772.35005      1977.96305        31.46305
R11  21282965.41024    -53119.30324     -2409.49124        24.38424
R01  20883953.64014    -58774.79614     -2918.64814        27.05514
R17  21482199.98224    -86102.97624     -3798.22124        29.11924
E03  25731702.31323    -41774.27923     -2980.00523        19.72223
E08  23496126.57014    -26877.65514     -1182.87214        26.84014
E13  24317763.56324    -62470.47424     -2392.62224        23.97524
E15  26776472.13423    -58629.04523     -4181.55023        19.65823
E25  26914604.50713     -8124.77813      -381.14513        23.31313
E26  25856809.30313     11727.34113       479.81013        21.45013
> 2024 10 27 15 47 53.0004289  0 19                      
G10  20305350.89805    -20135.33205      -814.16905        33.24105
G12  23686397.64824     15436.64324       640.34624        24.90024
G21  23697771.47424      3344.68324       134.14424        23.62524
G24  23239360.62523    -87082.49423     -4438.66423        22.40623
G25  23471804.10824     49670.12724      2079.38824        23.61024
G28  22584607.30224     56466.24824      2264.12024        26.08324
G32  21016592.01624     -2211.13424       -88.73524        27.99424
R02  19926136.52323     -5285.53223      -224.09023        19.62123
R18  21686828.12124     -9321.14924      -397.80224        25.39324
R12  20904044.23105     44749.62605      1977.91605        32.32705
R11  21283213.03824    -55525.11824     -2402.03024        24.71424
R01  20884339.17324    -61696.87024     -2918.82724        27.42524
R17  21482738.11025    -89901.51725     -3797.76725        29.93125
E03  25732088.14623    -44757.35323     -2980.54923        18.91123
E08  23496170.34024    -28060.47724     -1182.20924        26.73224
E13  24318044.46823    -64864.21323     -2394.98823        22.95523
E15  26777087.60823    -62813.26323     -4182.03523        18.94723
E25  26914497.18124     -8506.60024      -381.88124        23.85624
E26  25856536.79214     12207.17714       479.76014        23.58914
> 2024 10 27 15 47 54.0004283  0 19                      
G10  20305324.21705    -20950.03205      -815.09105        33.18105
G12  23686103.25224     16078.25024       639.43324        24.78424
G21  23697564.61724      3479.20724       134.51424        23.88224
G24  23240025.26523    -91526.38223     -4438.43823        21.03923
G25  23471229.70624     51749.80924      2079.67924        24.33424
G28  22583996.02524     58729.74824      2269.30324        25.34324
G32  21016433.42624     -2300.13424       -89.25024        28.35324
R02  19925999.81723     -5501.62123      -222.49623        19.07523
R18  21686701.30924     -9720.94824      -398.08224        24.20724
R12  20903491.11405     46727.02305      1976.91205        31.88805
R11  21283467.86224    -57929.98324     -2402.55224        25.81824
R01  20884690.23024    -64619.58124     -2920.58924        27.45924
R17  21483269.34225    -93700.08425     -3798.94525        30.27625
E03  25732475.17823    -47740.81223     -2981.18223        20.09323
E08  23496213.81024    -29242.61224     -1182.37524        26.88424
E13  24318326.87323    -67257.08023     -2393.51723        22.96523
E15  26777703.98123    -66979.66523     -4180.70723        20.17723
E25  26914388.65624     -8887.87624      -381.28924        24.32724
E26  25856265.48023     12687.49423       480.39223        22.89523
> 2024 10 27 15 47 55.0004276  0 18                      
G10  20305270.55405    -21765.71105      -816.72405        33.12305
G12  23685769.88314     16719.07014       644.68714        24.32314
G21  23697332.27824      3612.58024       134.05124        24.78724
G24  23240658.42723    -95966.49823     -4440.30423        19.38523
G25  23470625.62424     53828.64124      2079.22324        24.13024
G28  22583340.07924     60996.66024      2271.33824        25.15624
G32  21016244.25704     -2390.44004       -90.07504        28.53104
R02  19925848.12223     -5717.89023      -223.60423        19.40623
R18  21686604.17624    -10115.20724      -400.63424        25.32324
R12  20902909.51705     48703.18905      1975.03305        32.18705
R11  21283704.09814    -60334.57314     -2405.54914        25.12214
R01  20885026.89724    -67539.01324     -2919.63924        27.69724
R17  21483784.98525    -97499.74925     -3800.71525        30.63625
E03  25732834.32923    -50724.75123     -2980.99923        18.90023
E08  23496228.79924    -30425.65824     -1183.78624        27.50924
E13  24318566.70713    -69651.54113     -2394.21713        22.80313
E25  26914250.75224     -9270.39524      -381.62424        23.58924
E26  25855965.38823     13166.62423       479.79423        22.96623
> 2024 10 27 15 47 56.0004270  0 19                      
G10  20305247.76905    -22582.46305      -817.13305        33.29705
G12  23685463.19514     17358.73314       639.38014        25.90114
G21  23697127.82024      3744.73224       134.10224        23.67824
G24  23241326.66423   -100408.26023     -4440.75423        19.18723
G25  23470055.41924     55906.72524      2077.79724        24.54624
G28  22582724.00524     63264.27424      2265.12524        25.01724
G32  21016076.67304     -2481.33204       -91.53504        28.60204
R02  19925722.80923     -5936.65623      -224.07423        20.30323
R18  21686532.22614    -10516.42614      -405.38114        26.39014
R12  20902371.09005     50678.15905      1974.50705        32.79005
R11  21284021.87824    -62740.78424     -2409.25024        25.60624
R01  20885386.94714    -70459.40314     -2921.89414        27.42214
R17  21484308.72325   -101300.69125     -3801.46825        30.80525
E03  25733222.26113    -53709.10213     -2980.70913        18.51713
E08  23496274.96724    -31609.40024     -1183.79724        27.14124
E13  24318842.21623    -72047.05823     -2394.38723        23.45823
E15  26778908.54723    -75340.75823     -4180.79023        20.60123
E25  26914143.42623     -9654.15823      -382.09223        23.04323
E26  25855694.67523     13644.58923       477.50023        22.76023
> 2024 10 27 15 47 57.0004264  0 19                      
G10  20305220.48805    -23400.55905      -818.35405        32.99005
G12  23685161.30414     17996.87214       638.27214        26.31614
G21  23696925.46024      3875.62624       133.74724        23.55724
G24  23241991.30423   -104844.58323     -4442.40523        18.67323
G25  23469484.31424     57983.78524      2078.13524        24.98824
G28  22582112.72924     65528.96524      2262.00724        25.54524
G32  21015914.18504     -2573.08604       -91.53604        28.51004
R02  19925602.89223     -6159.83523      -224.41723        18.98923
R18  21686425.80024    -10919.15724      -402.98324        27.47124
R12  20901826.06705     52651.68205      1973.23605        32.80505
R11  21284304.88224    -65149.06324     -2411.30824        25.35824
R01  20885764.38624    -73380.77224     -2923.46224        27.17524
R17  21484842.95325   -105102.97125     -3802.86725        30.83525
E03  25733613.79023    -56691.58523     -2980.65223        18.04523
E08  23496322.33524    -32794.21624     -1185.09924        26.97424
E13  24319117.12624    -74444.25024     -2395.42724        23.93124
E15  26779527.31923    -79521.70823     -4181.55523        19.52723
E25  26914034.60223    -10038.84123      -385.41023        22.12523
E26  25855425.16213     14121.65213       478.61513        22.50313
> 2024 10 27 15 47 58.0004258  0 18                      
G10  20305195.00605    -24218.45705      -817.77405        33.45605
G12  23684860.91214     18635.40714       635.36414        26.83514
G21  23696720.70223      4003.66323       133.18123        23.08123
G24  23242654.74523   -109288.60023     -4442.16723        18.47123
G25  23468908.71324     60061.52424      2077.93824        25.01424
G28  22581508.34724     67793.99924      2261.28224        26.06824
G32  21015754.99604     -2664.54704       -90.95904        28.28004
R02  19925459.89123     -6389.02223      -224.13423        20.12723
R18  21686302.28514    -11322.32214      -405.11414        28.03014
R12  20901272.65005     54625.28305      1974.12105        32.95305
R11  21284588.78624    -67552.03324     -2405.85724        24.88424
R01  20886137.62814    -76301.64214     -2924.08514        27.55414
R17  21485377.78225   -108905.11525     -3801.51825        30.83925
E03  25733996.62523    -59649.22123     -2978.53323        17.75123
E08  23496368.20314    -33978.42614     -1183.58414        26.54014
E13  24319392.03523    -76841.51923     -2395.77623        22.71023
E25  26913929.37423    -10424.28123      -383.65723        21.77223
E26  25855155.04923     14598.05423       478.16623        22.83323
> 2024 10 27 15 47 59.0004252  0 18                      
G10  20305170.42305    -25035.97605      -817.53705        33.70305
G12  23684568.31524     19274.09324       637.72224        26.08824
G21  23696516.24324      4128.73624       132.27924        23.73024
G24  23243311.29023   -113734.40023     -4442.92123        18.84123
G25  23468332.51124     62139.57924      2078.04524        25.15124
G28  22580899.46914     70059.63414      2263.77814        26.52714
G32  21015593.10804     -2755.43204       -90.53304        28.61604
R02  19925308.49623     -6617.73023      -224.61023        19.57523
R18  21686213.54724    -11725.29124      -403.72224        28.27124
R12  20900727.32805     56599.00505      1973.35105        32.74405
R11  21284815.12924    -69953.09924     -2407.50224        24.96924
R01  20886488.98514    -79221.86914     -2919.82214        27.26514
R17  21485894.02525   -112707.29125     -3802.51625        30.67225
E03  25734382.75823    -62628.17123     -2979.50823        18.03123
E08  23496413.47124    -35162.05724     -1183.65924        26.08324
E13  24319669.64323    -79238.89423     -2396.53323        21.78223
E25  26913823.24824    -10810.04324      -383.96024        23.84924
E26  25854884.63623     15074.33123       477.86823        22.09623
> 2024 10 27 15 48 00.0004245  0 19                      
G10  20305149.13805    -25854.25005      -818.60205        34.12505
G12  23684263.12614     19912.04314       636.89014        27.01114
G21  23696312.68423      4260.07423       131.27623        23.06123
G24  23243960.94123   -118176.99023     -4442.92123        18.78523
G25  23467757.51024     64217.22924      2078.34924        25.14524
G28  22580281.29714     72324.58314      2266.67114        27.04914
G32  21015413.23204     -2846.88204       -92.05104        28.28904
R02  19925167.29423     -6848.39723      -221.74323        18.87123
R18  21686091.53124    -12129.45824      -405.08524        27.97124
R12  20900170.61305     58571.91805      1972.40505        32.95605
R11  21285108.62624    -72370.44824     -2411.38024        24.50724
R01  20886856.23024    -82142.68724     -2918.39124        27.80524
R17  21486422.25925   -116510.28925     -3803.89025        30.28025
E03  25734764.69323    -65606.87323     -2979.50823        17.79623
E08  23496458.74024    -36346.24824     -1185.65624        25.25424
E13  24319946.65123    -81635.71223     -2396.06923        22.51223
E15  26781370.74323    -92067.46123     -4181.45923        19.12323
E25  26913717.42124    -11195.53224      -385.43424        23.88724
E26  25854612.42423     15551.63423       477.63223        22.19823
> 2024 10 27 15 48 01.0004239  0 19                      
G10  20305095.47505    -26673.69305      -819.74905        35.05205
G12  23683920.16324     20548.55824       641.03924        24.35324
G21  23696077.94724      4389.30624       130.90924        24.17124
G24  23244599.19923   -122617.65923     -4441.94623        18.85823
G25  23467160.02304     66294.09704      2076.86004        27.63604
G28  22579638.54224     74588.87924      2263.69624        25.76324
G32  21015227.66104     -2939.13204       -92.70704        28.39904
R02  19925002.70823     -7077.89323      -222.27323        22.39523
R18  21685933.54124    -12535.19424      -406.55724        28.24524
R12  20899601.90705     60543.56505      1971.18105        33.01505
R11  21285354.75624    -74782.09024     -2409.91424        24.45524
R01  20887212.38424    -85064.55624     -2922.30624        27.82024
R17  21486927.70925   -120314.44225     -3804.34125        31.20925
E03  25735122.64523    -68585.24723     -2978.53323        18.18223
E08  23496469.23314    -37530.94114     -1185.07614        25.73414
E13  24320194.58014    -84033.45814     -2398.04314        26.38014
E15  26781954.13923    -96247.01023     -4180.48323        18.91523
E25  26913579.51723    -11581.27123      -385.98123        23.44123
E26  25854313.53123     16027.33023       477.37823        23.03023
> 2024 10 27 15 48 02.0004233  0 18                      
G10  20305072.69105    -27493.75105      -820.62505        34.95205
G12  23683614.37523     21183.00023       639.34223        22.86823
G21  23695872.58924      4518.20724       129.92024        24.14524
G25  23466585.92104     68370.50704      2075.79704        27.25204
G28  22579021.56924     76852.78224      2265.89224        24.04324
G32  21015066.07204     -3031.87704       -93.13404        28.41704
R02  19924857.90823     -7297.68223      -223.50123        23.31923
R18  21685846.30124    -12941.86424      -406.92024        28.33724
R12  20899057.78305     62514.47205      1970.59105        33.20705
R11  21285629.06623    -77198.86523     -2410.82023        23.29123
R01  20887571.83524    -87986.61424     -2922.64724        27.57324
R17  21487460.14125   -124119.44125     -3805.35625        31.19225
E03  25735510.87723    -71565.50523     -2978.53323        18.40723
E08  23496516.30024    -38716.19424     -1185.87024        25.36124
E13  24320472.18724    -86431.63324     -2398.11824        25.69124
E15  26782563.31723   -100429.76123     -4180.48323        18.26523
E25  26913474.28913    -11967.92513      -386.86213        22.68213
E26  25854041.91923     16502.62123       475.04123        22.56923
> 2024 10 27 15 48 03.0004227  0 18                      
G10  20305049.30705    -28313.23605      -819.45105        35.40505
G12  23683312.48423     21819.29223       638.84023        23.36023
G21  23695668.73024      4647.55924       129.42024        24.67624
G25  23466011.81804     70447.82304      2077.31504        27.73804
G28  22578411.19124     79117.01924      2265.46824        24.39524
G32  21014899.98724     -3123.34824       -91.79524        28.55024
R02  19924713.70823     -7521.14123      -224.93523        21.65223
R18  21685759.66124    -13348.54324      -407.01324        29.42924
R12  20898513.66005     64485.71905      1971.32105        33.28305
R11  21285896.18124    -79611.95524     -2411.80624        24.38024
R01  20887920.79324    -90907.91224     -2920.91424        27.99424
R17  21487991.67325   -127923.94325     -3804.02425        31.72525
E03  25735897.60923    -74545.40723     -2980.48423        18.63923
E08  23496562.46814    -39900.48714     -1184.07014        25.09214
E13  24320754.89214    -88829.34414     -2397.42014        26.32814
E15  26783183.58823   -104611.39623     -4182.43423        18.12923
E25  26913367.26423    -12354.00723      -385.88023        22.21023
E26  25853773.00523     16978.55023       476.28823        21.79223
> 2024 10 27 15 48 04.0004221  0 18                      
G10  20305024.42405    -29132.66605      -819.74705        35.08905
G12  23683014.49024     22455.33224       638.85124        24.03924
G21  23695466.07024      4777.10224       128.18224        24.42424
G25  23465434.71804     72525.47204      2077.15404        28.39004
G28  22577799.31523     81380.94923      2265.29023        23.31623
G32  21014738.99924     -3215.04724       -92.19424        27.83124
R02  19924573.40523     -7744.20023      -224.73723        22.67623
R18  21685666.42625    -13755.42425      -407.01825        29.57825
R12  20897955.44605     66456.91205      1970.70705        33.94905
R11  21286168.69224    -82023.66624     -2412.54724        23.69524
R01  20888273.94924    -93828.88224     -2921.25424        27.40424
R17  21488519.00825   -131728.53125     -3804.70025        31.37025
E03  25736290.03723    -77525.04323     -2980.48423        19.11023
E08  23496607.43724    -41084.48524     -1184.99424        25.35724
E13  24321029.80124    -91226.77324     -2397.42624        26.01724
E15  26783809.55423   -108790.97623     -4182.43423        18.41623
E25  26913261.73713    -12739.57713      -385.35613        23.47113
E26  25853502.29323     17454.70523       476.28023        22.79323
> 2024 10 27 15 48 05.0004215  0 18                      
G10  20305001.34005    -29952.93105      -821.01305        35.39905
G12  23682715.29723     23092.54123       637.21423        23.45823
G21  23695260.71224      4905.80124       127.78224        24.67124
G25  23464858.81604     74602.63004      2077.13904        28.66504
G28  22577186.83923     83644.88423      2264.46123        22.78423
G32  21014578.31024     -3307.31724       -92.80424        29.05124
R02  19924425.00824     -7962.21124      -223.32324        23.62224
R18  21685554.60324    -14163.61824      -409.19024        28.97324
R12  20897398.13205     68427.16505      1969.63605        34.04205
R11  21286440.30423    -84436.67823     -2412.27523        21.94023
R01  20888657.38324    -96750.47624     -2922.30324        28.04024
R17  21489049.64025   -135534.17925     -3806.31525        31.37325
E03  25736674.97123    -80504.37623     -2978.53323        19.46223
E08  23496658.40214    -42268.81714     -1184.68514        26.06914
E13  24321304.41124    -93625.10724     -2398.10724        25.89124
E15  26784413.93623   -112973.46423     -4180.48323        17.87423
E25  26913154.71123    -13126.36123      -386.69423        23.42423
E26  25853230.98123     17929.98723       476.34723        22.63823
> 2024 10 27 15 48 06.0004209  0 18                      
G10  20304977.35705    -30774.54305      -822.26605        35.14505
G12  23682419.40224     23724.56824       635.58624        24.48124
G21  23695060.15124      5033.19224       127.15324        24.45124
G23  21572269.32923   -125830.98323     -3418.10023        21.71523
G25  23464279.61704     76678.61004      2075.74004        27.72004
G28  22576580.05923     85907.76223      2262.87723        22.27623
G32  21014417.62124     -3400.88024       -94.44624        29.05224
R02  19924291.60023     -8185.06123      -224.64523        23.06023
R18  21685457.47024    -14573.49324      -410.85424        29.00124
R12  20896844.11605     70395.85605      1967.84605        34.18705
R11  21286709.81723    -86852.38523     -2412.14023        22.97523
R01  20889028.52624    -99673.16824     -2923.45024        28.00624
R17  21489579.07425   -139341.25825     -3807.74025        31.33925
E08  23496703.37114    -43454.43514     -1186.36114        26.00214
E13  24321575.72324    -96024.81524     -2400.97124        25.13324
E15  26785041.40222   -117154.86122     -4181.45922        17.39022
E25  26913049.78313    -13514.36113      -388.49513        22.83013
E26  25852959.36913     18403.84913       473.19913        22.06313
> 2024 10 27 15 48 07.0004202  0 17                      
G10  20304922.19505    -31596.90405      -822.43005        35.33105
G12  23682090.83024     24354.55724       635.24524        24.37124
G21  23694824.51424      5160.80124       126.90924        24.88724
G23  21572701.33023   -129243.84423     -3418.09223        21.63223
G25  23463675.83524     78754.16524      2072.12024        26.42724
G28  22575940.60223     88169.17323      2261.69123        21.52523
G32  21014223.95504     -3495.32704       -93.61104        28.59704
R02  19924118.02023     -8404.82823      -226.30823        22.27023
R18  21685320.16524    -14984.55824      -410.84424        28.75724
R12  20896275.41005     72363.65605      1967.51505        34.33305
R11  21286951.15023    -89265.06023     -2412.72923        21.76923
R01  20889366.99224   -102596.35624     -2922.97324        28.62624
R17  21490088.12225   -143149.22925     -3808.31525        31.71425
E08  23496718.36014    -44640.38014     -1185.50014        26.99214
E13  24321823.95224    -98425.20524     -2399.41224        24.76624
E25  26912914.57714    -13903.10314      -389.14714        24.22414
E26  25852660.17613     18877.13613       473.91813        22.15313
> 2024 10 27 15 48 08.0004196  0 17                      
G10  20304898.21106    -32419.03306      -822.63706        35.70206
G12  23681798.83214     24988.63814       634.73814        24.37314
G21  23694621.25524      5287.40724       126.22724        24.93224
G23  21573175.00223   -132671.03923     -3417.99023        20.84623
G25  23463111.92614     80830.25514      2074.51414        26.60414
G28  22575335.02123     90427.55423      2261.03523        20.65123
G32  21014068.06305     -3588.78805       -93.78005        29.57505
R02  19923975.91823     -8627.61023      -225.81023        19.79623
R18  21685208.94224    -15395.83024      -411.59824        29.12724
R12  20895728.88805     74331.67705      1967.73405        34.83505
R11  21287221.56323    -91673.15823     -2412.70523        20.25923
R01  20889733.03924   -105519.08124     -2922.86724        28.47824
R17  21490624.75025   -146957.01025     -3808.23525        32.27225
E08  23496760.63114    -45825.73814     -1185.16614        27.00214
E13  24322092.26614   -100825.18514     -2400.00314        24.32814
E25  26912807.55124    -14291.32724      -388.00024        23.86224
E26  25852388.26423     19350.87123       473.79823        21.50123
> 2024 10 27 15 48 09.0004190  0 17                      
G10  20304874.52806    -33240.68306      -821.94306        36.23006
G12  23681493.04414     25622.91414       638.32814        24.55214
G21  23694415.29814      5414.47414       125.78014        26.06514
G23  21573654.07022   -136090.22722     -3421.16922        17.49722
G25  23462527.93024     82906.83224      2075.47824        26.70824
G28  22574720.74624     92686.32824      2261.85324        24.38324
G32  21013900.18005     -3681.81705       -93.03405        29.82505
R02  19923857.50023     -8854.42923      -226.79323        21.00523
R18  21685110.31125    -15806.96225      -411.14925        29.65025
R12  20895179.36805     76299.87605      1967.98905        34.54705
R11  21287481.18323    -94081.78623     -2414.51823        21.21923
R01  20890108.07925   -108441.13925     -2922.19025        29.85825
R17  21491152.68525   -150764.61125     -3808.16325        32.69025
E08  23496807.39904    -47010.47204     -1185.05604        29.40704
E13  24322376.76924   -103224.87224     -2400.62724        27.03624
E25  26912701.42413    -14679.16113      -387.61113        23.25013
E26  25852122.34813     19825.06113       474.36613        21.51313
> 2024 10 27 15 48 10.0004184  0 16                      
G10  20304851.74406    -34063.22806      -823.65106        36.75706
G12  23681194.15024     26256.32124       635.78824        25.41724
G21  23694211.13914      5540.79514       124.42314        26.01014
G25  23461952.62824     84982.98724      2075.04424        27.93224
G28  22574110.36923     94945.33323      2262.68723        23.42423
G32  21013738.89105     -3775.31105       -93.88505        30.20905
R02  19923713.30023     -9079.19423      -224.98423        20.27423
R18  21685011.07925    -16219.39825      -413.10125        29.66925
R12  20894633.44605     78267.06105      1966.17505        34.64105
R11  21287747.39923    -96503.24523     -2415.64223        21.57923
R01  20890464.53225   -111363.77325     -2923.36625        30.46625
R17  21491682.11825   -154573.13425     -3809.57225        33.16825
E08  23496858.36305    -48195.62205     -1185.54705        30.98205
E13  24322653.47724   -105625.21324     -2401.21924        27.48424
E25  26912595.29823    -15067.71023      -388.07623        22.80123
E26  25851853.13423     20298.55323       474.02423        20.70023
> 2024 10 27 15 48 11.0004178  0 16                      
G10  20304826.86106    -34887.44206      -824.89706        36.86006
G12  23680891.06024     26888.08724       633.84724        25.69424
G21  23694007.58014      5665.56614       123.96314        24.78914
G25  23461373.12924     87057.71224      2073.67224        28.30324
G28  22573502.68924     97204.80224      2261.60624        26.43524
G32  21013581.50005     -3870.33905       -95.04105        30.92405
R02  19923581.09223     -9302.87223      -225.36023        23.37423
R18  21684911.84825    -16633.91725      -414.83725        30.65425
R12  20894090.82205     80232.49305      1964.77405        34.86905
R11  21288009.71823    -98919.30723     -2416.36823        22.12523
R01  20890832.37825   -114287.93225     -2924.42625        29.69225
R17  21492211.55225   -158383.50725     -3811.00125        33.28625
E08  23496902.73305    -49382.18705     -1186.23805        30.72105
E13  24322930.48624   -108027.26424     -2401.50824        26.74724
E25  26912489.77123    -15458.37823      -389.07823        22.66023
E26  25851581.82223     20769.93423       472.49223        20.60523
> 2024 10 27 15 48 12.0004172  0 17                      
G10  20304801.97806    -35712.03506      -824.61406        36.47206
G12  23680606.55714     27519.59314       631.19814        25.48214
G21  23693813.31414      5789.55014       125.26014        23.82114
G25  23460804.42324     89132.42124      2074.33524        27.90124
G28  22572896.80924     99465.44924      2260.22324        27.60824
G32  21013420.51205     -3965.50605       -95.05805        30.60805
R02  19923450.98224     -9523.89624      -225.54424        24.56724
R18  21684821.01125    -17049.26825      -415.58725        30.46825
R12  20893536.50605     82197.34305      1964.57605        34.73705
R11  21288284.32723   -101338.79623     -2418.28323        20.28123
R01  20891216.11224   -117212.18224     -2924.44224        29.12124
R17  21492740.68525   -162194.38725     -3810.95025        33.33225
E03  25739357.21423   -101357.60423     -2979.02423        20.24923
E08  23496947.40205    -50568.90805     -1186.81505        30.33405
E13  24323207.19414   -110429.59314     -2402.95114        25.40314
E25  26912382.44523    -15849.05323      -389.49823        21.21823
E26  25851312.00923     21241.31123       471.44723        20.43023
> 2024 10 27 15 48 13.0004165  0 18                      
G10  20304751.61306    -36536.02006      -823.54006        36.67706
G12  23680280.38324     28151.03724       630.62324        24.79724
G21  23693575.27924      5917.31724       130.48524        24.05624
G23  21575513.68324   -149779.83324     -3422.96924        23.68824
G25  23460207.83604     91207.94104      2075.63404        28.19904
G28  22572250.15624    101730.16824      2263.84724        24.28924
G32  21013230.44305     -4059.73805       -93.75905        30.50405
R02  19923277.40223     -9744.47223      -225.65223        22.99523
R18  21684703.49225    -17464.23425      -414.52725        29.99325
R12  20892956.10705     84162.73505      1965.34405        34.77905
R11  21288542.74923   -103757.03423     -2419.62823        21.39923
R01  20891537.78924   -120135.49224     -2922.60424        28.66724
R17  21493242.23825   -166004.71825     -3810.25425        33.42325
E03  25739721.46223   -104338.60723     -2979.35723        20.09323
E08  23496965.38905    -51754.57605     -1185.50305        30.02505
E13  24323457.22114   -112831.19914     -2401.29814        26.41114
E25  26912247.83923    -16238.82923      -389.73723        22.73023
E26  25851010.11823     21713.84923       471.95223        20.85523
> 2024 10 27 15 48 14.0004159  0 18                      
G10  20304728.22926    -37359.69526      -824.20626        36.51626
G12  23679977.29323     28784.08723       627.68723        22.64623
G21  23693375.61724      6052.76024       127.03924        24.21724
G23  21575997.54824   -153202.88524     -3423.52224        25.49224
G25  23459623.54124     93283.62024      2076.34324        27.58424
G28  22571638.28023    103998.84423      2263.02223        22.42523
G32  21013067.95625     -4153.57025       -94.24325        30.19425
R02  19923146.69324     -9970.25824      -225.02224        25.41224
R18  21684585.97424    -17879.89424      -415.84024        29.47024
R12  20892411.68425     86127.83625      1964.93225        34.87225
R11  21288817.05923   -106172.76023     -2420.93523        20.01923
R01  20891889.74624   -123058.82724     -2923.19824        27.96724
R17  21493773.17025   -169815.34225     -3810.82425        33.47325
E03  25740108.79323   -107320.20023     -2979.70923        20.38223
E08  23497012.75724    -52940.04624     -1185.23724        29.31724
E13  24323729.43324   -115232.97324     -2401.50824        26.13524
E25  26912145.01023    -16628.89723      -390.09423        22.71323
E26  25850741.50423     22185.75123       471.73623        21.94623
> 2024 10 27 15 48 15.0004153  0 18                      
G10  20304704.54626    -38184.63026      -825.95326        36.44926
G12  23679678.99923     29418.48423       629.58623        21.55823
G21  23693166.06223      6175.18323       122.48123        22.93423
G23  21576453.23224   -156626.59024     -3420.53624        24.85724
G25  23459050.63724     95358.71524      2074.67124        27.46424
G28  22571027.60323    106261.10723      2262.25623        21.73523
G32  21012906.66725     -4248.49825       -96.21125        30.22325
R02  19922994.09824    -10196.32724      -227.34624        24.49424
R18  21684486.14325    -18296.74125      -418.01325        29.76625
R12  20891865.16325     88091.99525      1963.12425        34.49925
R11  21289092.86823   -108588.17523     -2420.23223        19.35623
R01  20892265.38624   -125982.61724     -2924.28224        28.15124
R17  21494313.99625   -173626.94425     -3812.64425        32.81825
E03  25740489.53023   -110302.49723     -2979.71523        19.61523
E08  23497058.62524    -54126.13524     -1186.44024        29.12024
E13  24324008.23924   -117635.51724     -2403.10924        26.28424
E25  26912040.08223    -17019.71423      -391.20423        22.35823
E26  25850476.78723     22657.19323       471.04023        22.56823
> 2024 10 27 15 48 16.0004147  0 18                      
G10  20304682.96026    -39010.58126      -826.24526        36.46726
G12  23679379.50723     30051.74123       631.14823        20.66723
G21  23692961.90424      6292.66624       123.70124        23.74224
G23  21576944.89224   -160051.22324     -3422.02424        24.45024
G25  23458478.03424     97433.08424      2073.90424        27.65124
G28  22570417.52523    108521.05023      2261.04123        20.62323
G32  21012747.17825     -4344.05525       -95.60225        29.59225
R02  19922851.39724    -10417.03224      -224.46524        24.16124
R18  21684386.91124    -18714.97324      -418.67124        29.35124
R12  20891322.83825     90054.94725      1962.65325        34.49625
R11  21289388.76323   -111000.82623     -2419.03323        19.15623
R01  20892662.31124   -128907.22124     -2924.61424        28.42624
R17  21494839.23225   -177439.71825     -3813.52825        32.40625
E03  25740873.26423   -113284.40923     -2980.59523        19.15023
E08  23497101.49524    -55312.87024     -1186.56624        28.39324
E13  24324284.64824   -120039.06724     -2403.34524        26.42124
E25  26911935.75523    -17411.74123      -392.51923        23.15423
E26  25850209.37223     23127.41423       469.86723        22.70123
> 2024 10 27 15 48 17.0004141  0 18                      
G10  20304658.97726    -39837.36926      -827.25126        36.61326
G12  23679080.91323     30679.07623       628.36123        20.06823
G21  23692761.64224      6412.74224       122.95124        23.55724
G23  21577410.76924   -163476.51324     -3422.89724        24.60024
G25  23457898.83524     99506.88224      2075.31524        26.89024
G28  22569811.64523    110774.92123      2260.66723        20.18523
G32  21012586.78925     -4440.41125       -96.81125        29.92225
R02  19922686.21124    -10638.93524      -229.59924        24.17424
R18  21684277.18725    -19134.47325      -420.32825        29.64925
R12  20890777.51625     92016.93825      1961.51025        34.28425
R11  21289649.28223   -113420.43623     -2419.51623        17.83623
R01  20893012.46824   -131832.49024     -2925.70624        28.09024
R17  21495376.46125   -181253.40325     -3814.10125        33.07025
E03  25741262.39523   -116255.30023     -2980.45023        18.04623
E08  23497150.36124    -56500.24924     -1188.08224        28.42224
E13  24324559.55824   -122443.39524     -2404.98424        26.75424
E25  26911830.22824    -17804.33124      -393.06224        24.22624
E26  25849938.36023     23596.99323       469.24823        23.38223
> 2024 10 27 15 48 18.0004134  0 18                      
G10  20304608.61226    -40663.90726      -826.20726        36.49226
G12  23678743.64723     31302.31223       628.20823        18.43323
G21  23692529.30323      6534.88123       121.53423        23.13223
G23  21577853.56324   -166901.65324     -3426.52724        25.05124
G25  23457299.25024    101581.19624      2075.24924        27.17224
G28  22569169.78923    113037.21023      2259.86123        19.30223
G32  21012395.82125     -4536.13125       -94.90625        29.61825
R02  19922562.39724    -10867.57124      -229.60224        24.96324
R18  21684140.48224    -19554.08424      -419.55524        29.43524
R12  20890201.01525     93979.07025      1962.44225        34.48425
R11  21289878.92423   -115841.74623     -2420.84223        20.10323
R01  20893345.83824   -134757.21724     -2924.20224        28.76124
R17  21495876.81425   -185067.00825     -3813.38225        32.98625
E03  25741611.05323   -119235.81823     -2980.31723        17.80923
E08  23497161.45424    -57686.86924     -1185.84924        28.25724
E13  24324806.28724   -124847.35024     -2403.41624        26.63324
E25  26911694.42224    -18196.60624      -391.73124        23.66624
E26  25849639.46723     24066.75923       470.35123        22.47423
> 2024 10 27 15 48 19.0004128  0 17                      
G10  20304584.92826    -41490.74526      -826.97226        35.97726
G12  23678439.95722     31925.55522       630.71122        17.12222
G21  23692327.54324      6657.27724       120.99024        23.60524
G23  21578320.63924   -170323.74224     -3425.70824        24.74724
G25  23456734.14124    103655.97724      2073.34624        25.94724
G28  22568560.01123    115296.96923      2261.22723        19.44323
G32  21012226.13924     -4632.09724       -95.89024        28.87824
R02  19922441.28124    -11089.40624      -224.57024        25.62124
R18  21684046.94724    -19973.81224      -419.86124        29.37224
R12  20889643.70125     95941.26025      1961.56425        34.91625
R11  21290143.64023   -118265.62123     -2422.45823        21.04823
R01  20893732.57024   -137681.59524     -2925.72924        28.68824
R17  21496410.74525   -188880.48425     -3813.98125        31.46025
E08  23497204.92424    -58873.16124     -1187.29124        27.03024
E13  24325090.49024   -127251.06824     -2404.06924        26.15024
E25  26911591.59323    -18588.57223      -391.86923        22.40023
E26  25849369.05423     24537.38423       469.77823        21.69523
> 2024 10 27 15 48 20.0004122  0 18                      
G10  20304563.04426    -42317.21026      -826.83826        35.63026
G12  23678131.47123     32581.18423       630.20623        17.53923
G21  23692124.58324      6778.79024       121.34624        23.71224
G23  21578809.00124   -173749.04424     -3423.39924        24.68424
G25  23456154.34224    105730.30324      2073.10424        26.11124
G28  22567951.43223    117560.39323      2259.94323        20.89123
G32  21012063.95124     -4727.53124       -96.41724        28.74224
R02  19922314.76824    -11316.20224      -222.96624        25.50324
R18  21683936.92324    -20394.67324      -420.46424        28.78124
R12  20889109.77025     97902.65925      1961.54025        34.47825
R11  21290426.04523   -120693.82223     -2423.54023        20.96623
R01  20894111.20824   -140606.26824     -2924.74824        27.76924
R17  21496939.87825   -192694.80425     -3814.17625        32.08825
E03  25742392.91223   -125194.71423     -2979.50823        18.02823
E08  23497253.49024    -60059.67724     -1186.39824        27.34824
E13  24325362.70224   -129655.55724     -2405.35024        25.39924
E25  26911487.26523    -18981.42323      -392.71023        22.07423
E26  25849101.34023     25007.11323       469.45523        23.04823
> 2024 10 27 15 48 21.0004116  0 18                      
G10  20304540.25925    -43145.77925      -829.12225        35.22925
G12  23677846.96822     33212.15422       630.70922        17.14822
G21  23691919.22623      6898.91923       120.64423        23.08523
G23  21579276.97724   -177175.86024     -3426.76024        24.89024
G25  23455568.54824    107803.53124      2069.80424        25.98124
G28  22567341.95423    119820.40423      2260.11323        21.21823
G32  21011900.26424     -4824.68324       -97.83324        28.05424
R02  19922173.56624    -11544.15124      -224.32024        24.59424
R18  21683845.18624    -20817.60824      -420.73024        27.91324
R12  20888558.75225     99862.30925      1959.21525        33.45025
R11  21290716.24423   -123120.36323     -2422.56223        20.86323
R01  20894483.55024   -143532.35124     -2927.09224        27.35324
R17  21497467.51325   -196510.84125     -3816.59425        31.29325
E03  25742773.34923   -128174.42423     -2979.50823        18.02923
E08  23497298.75924    -61247.55124     -1189.02224        27.00924
E13  24325637.01224   -132061.43624     -2406.60424        25.22124
E25  26911379.04023    -19375.60923      -394.99923        21.27123
E26  25848830.62723     25476.20323       468.99623        22.97823
> 2024 10 27 15 48 22.0004110  0 18                      
G10  20304517.77525    -43975.39225      -829.99125        34.63325
G12  23677568.16122     33842.53422       630.70922        16.29822
G21  23691717.46523      7017.29623       120.21423        23.45823
G23  21579750.35024   -180601.45724     -3432.64124        23.82224
G25  23455001.64024    109875.70924      2068.77624        25.61424
G28  22566736.07423    122077.04723      2259.49723        18.43923
G32  21011738.97624     -4922.64024       -98.11024        27.12924
R02  19922036.56123    -11776.77623      -232.17823        23.39023
R18  21683709.38024    -21241.98224      -424.07424        26.72224
R12  20888010.43125    101820.76525      1958.03625        32.78425
R11  21290986.65723   -125546.21023     -2423.75423        18.49223
R01  20894840.30324   -146459.10224     -2930.31724        26.61124
R17  21498012.53625   -200328.04525     -3817.72225        30.87125
E03  25743156.78323   -131153.81823     -2979.50823        17.62523
E08  23497343.12824    -62436.03224     -1189.15124        25.99124
E13  24325919.11724   -134468.30724     -2407.98424        24.66024
E25  26911275.01223    -19770.86623      -395.90823        21.57023
E26  25848562.01323     25944.12923       468.69523        19.93823
> 2024 10 27 15 48 23.0004104  0 18                      
G10  20304496.78925    -44804.58725      -828.88425        34.03025
G12  23677265.97022     34473.13222       630.70922        16.13122
G21  23691513.90623      7131.02623       119.87523        22.54123
G23  21580227.61923   -184034.38823     -3432.01823        22.36923
G25  23454424.24024    111948.77324      2075.31624        24.44724
G28  22566126.89523    124335.13223      2258.01323        19.92123
G32  21011571.99124     -5020.03924       -95.28424        26.93224
R02  19921859.98324    -12016.62424      -235.90124        23.77424
R18  21683634.13224    -21666.07424      -423.44924        26.09924
R12  20887461.51125    103779.54625      1959.52325        32.43025
R11  21291265.16423   -127966.82623     -2426.09323        20.49423
R01  20895211.74624   -149384.31024     -2930.54424        25.62024
R17  21498548.86425   -204144.96125     -3816.71925        30.60925
E03  25743544.71523   -134133.43623     -2979.50823        17.71723
E08  23497384.49924    -63623.83724     -1187.21424        25.01724
E13  24326197.92424   -136874.72024     -2406.13524        24.97824
E25  26911170.98423    -20166.11523      -394.31523        21.33223
E26  25848292.20023     26410.93823       468.60823        20.40323
> 2024 10 27 15 48 24.0004097  0 16                      
G10  20304443.12725    -45633.71925      -829.47325        33.71225
G21  23691280.36824      7248.10724       118.90224        24.23924
G23  21580668.01424   -187471.68224     -3430.73524        23.55024
G25  23453816.86024    114022.77724      2072.41224        25.42324
G28  22565491.33524    126593.71424      2258.51824        23.73224
G32  21011381.02425     -5117.21725       -97.18725        30.83125
R02  19921693.89823    -12253.94023      -235.27323        22.32923
R18  21683495.32924    -22090.71224      -424.59024        27.68724
R12  20886889.20725    105738.20325      1958.01025        34.35325
R11  21291512.49323   -130387.03523     -2426.98423        20.97523
R01  20895528.32724   -152313.26324     -2923.30924        27.60324
R17  21499050.41725   -207961.89225     -3817.34425        30.95625
E08  23497407.28324    -64811.25524     -1187.60024        26.25524
E13  24326445.55224   -139280.94324     -2406.41224        27.23724
E25  26911036.37723    -20561.19023      -394.71623        21.19723
E26  25847991.80823     26877.02823       468.04823        22.56923
> 2024 10 27 15 48 25.0004091  0 16                      
G10  20304420.94225    -46463.66425      -830.04425        34.26825
G21  23691081.00624      7369.39524       119.80924        24.85524
G23  21581139.88824   -190899.83024     -3429.84324        24.76624
G25  23453235.26324    116097.23924      2072.93424        25.24124
G28  22564885.75524    128851.89724      2258.03724        26.14824
G32  21011223.33325     -5214.89925       -97.17925        32.81225
R02  19921570.08423    -12493.82223      -233.68923        22.54623
R18  21683402.09324    -22516.06724      -426.08524        28.40324
R12  20886338.48925    107696.48825      1957.87225        34.27225
R11  21291779.60823   -132815.07923     -2426.88423        21.66623
R01  20895895.27324   -155239.12824     -2926.31224        27.57424
R17  21499595.14025   -211779.26625     -3818.02825        32.93025
E08  23497454.65124    -65998.58124     -1186.51524        25.80824
E13  24326725.25924   -141687.58624     -2406.44024        27.53324
E25  26910932.34923    -20955.98123      -394.46523        20.56323
E26  25847723.79324     27343.61924       467.84524        23.99424
> 2024 10 27 15 48 26.0004085  0 16                      
G10  20304398.45725    -47293.45325      -830.65725        34.99025
G21  23690881.04424      7485.21924       116.95624        25.83324
G23  21581611.16124   -194327.88824     -3429.46824        24.65724
G25  23452673.15224    118173.63424      2075.92224        24.12324
G28  22564275.67724    131109.48924      2254.31724        26.13024
G32  21011067.44125     -5312.38225       -98.44325        33.24125
R02  19921430.98023    -12727.33523      -232.26423        22.75423
R18  21683290.87024    -22942.59524      -427.17224        28.88424
R12  20885793.16625    109653.62025      1956.37825        34.13125
R11  21292040.42723   -135241.94023     -2426.54423        22.35623
R01  20896262.51824   -158165.76324     -2927.59624        27.92424
R17  21500126.37225   -215597.72325     -3819.20625        33.43525
E08  23497494.52324    -67186.75024     -1188.40524        24.96924
E13  24327000.16824   -144095.10824     -2409.00624        28.31924
E25  26910828.32123    -21351.87523      -396.27723        21.01923
E26  25847455.17923     27810.49523       467.58423        23.24423
> 2024 10 27 15 48 27.0004079  0 16                      
G10  20304379.57125    -48125.28025      -832.34925        33.88225
G21  23690666.09324      7598.07624       117.82324        24.22424
G23  21582080.33724   -197757.29424     -3429.14924        24.17524
G25  23452107.14424    120254.19724      2071.09924        24.38224
G28  22563674.29323    133364.02823      2247.88723        23.47923
G32  21010907.05225     -5411.53425       -99.37025        31.05625
R02  19921297.27323    -12956.77723      -232.01823        23.49823
R18  21683194.93724    -23371.04624      -429.02824        28.10724
R12  20885258.03725    111609.20825      1955.37225        32.94125
R11  21292319.23423   -137670.27623     -2428.47823        20.36223
R01  20896630.06424   -161095.34324     -2925.90624        26.93724
R17  21500659.70325   -219417.77425     -3820.55025        31.83525
E08  23497542.19024    -68375.86524     -1188.99224        24.69024
E13  24327278.07624   -146503.84424     -2408.86224        27.91824
E25  26910722.79423    -21749.12323      -394.94323        21.23123
E26  25847188.06423     28275.72323       467.06023        21.84523
> 2024 10 27 15 48 28.0004073  0 16                      
G10  20304357.38625    -48956.64825      -831.34225        34.31925
G21  23690471.22824      7715.08824       117.44924        24.68124
G23  21582553.10924   -201186.19824     -3429.28624        23.80824
G25  23451536.33924    122322.53224      2069.26624        25.12424
G28  22563064.51523    135618.95023      2249.43423        23.16223
G32  21010744.26425     -5510.09925       -98.41625        31.26725
R02  19921159.36824    -13189.25624      -230.98224        24.94224
R18  21683101.40125    -23799.56525      -428.81125        30.01925
R12  20884706.41925    113565.00525      1955.62325        33.50025
R11  21292594.14423   -140101.23823     -2430.53523        20.84823
R01  20897020.39424   -164020.28824     -2927.97324        27.87824
R17  21501191.23525   -223237.52225     -3819.56925        32.36625
E08  23497589.85724    -69564.44724     -1188.60224        26.18924
E13  24327561.08025   -148912.26625     -2408.20025        29.60025
E25  26910617.26723    -22146.25023      -395.91023        19.93123
E26  25846921.24924     28741.29524       466.12524        23.63424
> 2024 10 27 15 48 29.0004067  0 16                      
G10  20304334.90125    -49787.68625      -830.90825        33.92825
G21  23690283.85824      7832.65124       115.32624        25.93324
G23  21583026.78124   -204614.62124     -3429.38224        25.34224
G25  23450946.64724    124387.52324      2072.35524        24.30724
G28  22562452.63924    137876.45124      2252.56124        25.50024
G32  21010583.57625     -5608.01325       -97.71325        31.58025
R02  19921029.25824    -13421.90124      -231.12524        25.46424
R18  21682999.77225    -24227.99125      -428.16525        29.88525
R12  20884156.00025    115521.21425      1956.50425        33.97625
R11  21292854.96323   -142529.34723     -2429.68923        20.90023
R01  20897374.44924   -166946.74824     -2926.38724        28.84124
R17  21501732.36025   -227057.02625     -3819.13525        32.27225
E08  23497635.72524    -70752.14224     -1186.81024        26.71524
E13  24327839.88724   -151320.13524     -2406.75524        29.16124
E25  26910512.64023    -22543.25823      -395.18923        18.28323
E26  25846653.83424     29207.67924       466.62824        23.53924
> 2024 10 27 15 48 30.0004060  0 17                      
G10  20304284.53625    -50618.89025      -831.47225        34.85525
G21  23690045.82324      7949.90724       115.08124        26.50724
G23  21583464.47824   -208043.06924     -3427.68324        25.17224
G25  23450335.97024    126461.34724      2079.52024        25.62724
G28  22561803.88823    140133.69923      2256.14523        23.45423
G32  21010392.30825     -5705.90625       -97.88025        31.85525
R02  19920873.06724    -13648.38124      -230.20424        25.84124
R18  21682882.85325    -24657.05225      -429.77125        30.53725
R12  20883578.59925    117476.94825      1955.36425        33.69425
R11  21293101.99223   -144952.53223     -2430.89323        19.80223
R01  20897699.12424   -169873.26324     -2927.08824        29.09624
R17  21502235.71225   -230876.85925     -3819.93625        32.38025
E02  26862927.18223     78704.40123      1509.33323        22.77323
E08  23497659.10924    -71939.92124     -1187.84124        27.37824
E13  24328092.01224   -153728.35124     -2408.38524        28.40624
E25  26910374.13623    -22939.42923      -395.61623        19.93823
E26  25846356.74024     29673.73524       466.02224        23.72924
> 2024 10 27 15 48 31.0004054  0 18                      
G10  20304262.65125    -51451.13225      -831.99625        34.72025
G21  23689843.46324      8066.61624       115.88324        25.75124
G23  21583927.95824   -211472.15824     -3424.45824        25.31424
G25  23449768.76324    128539.56324      2070.70124        26.22124
G28  22561192.91123    142391.35023      2255.46723        22.20723
G32  21010230.72025     -5804.78525       -98.53925        32.07825
R02  19920745.95524    -13878.53724      -225.88024        25.88324
R18  21682777.32625    -25087.07425      -430.46625        30.74425
R12  20883035.97525    119431.93225      1954.59425        33.19625
R11  21293383.19823   -147379.87623     -2430.45523        19.93423
R01  20898087.95525   -172800.04425     -2927.19025        29.61925
R17  21502761.84825   -234697.37725     -3820.78825        32.20925
E02  26862461.90523     80213.99023      1509.27923        21.58823
E03  25746595.10323   -157969.10823     -2980.10223        20.41223
E08  23497703.77824    -73127.79724     -1188.25124        26.46124
E13  24328366.62224   -156136.97024     -2408.51424        28.31524
E25  26910271.00723    -23281.56423      -395.12323        21.34923
E26  25846085.72723     30139.25323       465.29923        22.39123
> 2024 10 27 15 48 32.0004048  0 18                      
G10  20304240.16725    -52283.93325      -833.16425        33.99025
G21  23689641.70224      8182.17624       115.02324        26.98424
G23  21584397.43324   -214900.31924     -3426.00324        24.19824
G25  23449196.75924    130609.07624      2065.39424        25.94924
G28  22560587.33023    144647.61423      2254.63123        23.29523
G32  21010069.13225     -5903.29725       -98.38025        31.59925
R02  19920573.57424    -14108.51724      -230.12624        26.60624
R18  21682693.68425    -25518.38125      -431.86125        30.68025
R12  20882493.65025    121386.54625      1954.97725        33.00725
R11  21293649.41323   -149809.29523     -2429.59723        20.61923
R01  20898449.20524   -175727.86524     -2928.23224        29.30124
R17  21503303.57325   -238518.10825     -3819.73525        31.66825
E02  26861993.32923     81722.97823      1508.96023        23.13523
E03  25746980.93623   -160948.90923     -2980.29623        20.57123
E08  23497748.74724    -74315.85824     -1187.78324        26.64824
E13  24328647.22824   -158545.98524     -2408.63124        28.98524
E25  26910169.67723    -23677.62323      -395.95523        19.90423
E26  25845815.91423     30604.62523       465.86223        22.15523
> 2024 10 27 15 48 33.0004042  0 18                      
G10  20304219.18225    -53117.23425      -833.17325        35.30325
G21  23689436.04524      8296.95324       116.09024        26.66224
G23  21584874.40223   -218331.43423     -3433.69123        23.38823
G25  23448628.65224    132680.03624      2067.37424        26.10924
G28  22559975.75424    146903.38024      2255.45224        23.60724
G32  21009907.84325     -6002.79025       -99.66025        31.43425
R02  19920441.66524    -14340.71224      -236.37824        26.97924
R18  21682589.95525    -25951.28225      -432.36725        30.77525
R12  20881937.53525    123338.96425      1953.20825        33.32525
R11  21293915.02923   -152241.72123     -2432.64023        18.95323
R01  20898813.75224   -178652.11224     -2928.10624        29.26424
R17  21503834.50525   -242340.90525     -3821.95025        33.40425
E02  26861525.65324     83230.24324      1508.55424        23.61224
E03  25747375.46323   -163928.40023     -2981.65823        20.82923
E08  23497794.01624    -75505.74324     -1188.32224        27.31024
E13  24328925.73524   -160956.22424     -2411.51524        28.25524
E25  26910063.85023    -24075.04123      -397.35423        21.50123
E26  25845545.80123     31068.29823       464.92523        23.06523
> 2024 10 27 15 48 34.0004036  0 18                      
G10  20304198.19625    -53950.41025      -832.99925        35.42225
G21  23689230.08724      8416.93724       117.02024        25.36024
G23  21585361.86523   -221761.64523     -3436.16123        23.43023
G25  23448058.74724    134751.93824      2072.04524        25.51424
G28  22559365.37624    149159.53724      2255.15224        24.42224
G32  21009757.64725     -6101.74425       -98.47825        29.73325
R02  19920347.53024    -14570.83624      -232.74324        27.13424
R18  21682498.81825    -26383.87025      -432.16725        30.28825
R12  20881388.61525    125292.20325      1953.55525        33.70625
R11  21294185.44223   -154673.48523     -2434.08623        19.79223
R01  20899174.70224   -181579.62324     -2926.96824        29.26524
R17  21504373.23225   -246163.22625     -3822.16425        33.35225
E02  26861057.37723     84735.78423      1508.89723        22.15123
E03  25747763.69423   -166908.22023     -2980.14123        20.66023
E08  23497838.08524    -76694.21124     -1188.15524        28.23124
E13  24329204.54224   -163366.13224     -2409.85724        26.18024
E25  26909958.92323    -24473.90723      -397.46623        20.19123
E26  25845278.08623     31530.54623       465.06823        21.44723
> 2024 10 27 15 48 35.0004030  0 17                      
G10  20304175.41226    -54784.12426      -833.83626        35.97626
G21  23689029.52624      8531.38624       113.47924        26.12624
G23  21585831.64023   -225192.18523     -3434.94223        22.76323
G25  23447463.05924    136823.66224      2072.42424        26.78624
G28  22558753.50024    151415.16524      2254.69524        23.60124
G32  21009590.36325     -6201.08625       -99.12425        30.08825
R02  19920187.14124    -14795.10424      -229.21624        25.78024
R18  21682385.79724    -26817.47324      -433.84224        29.19624
R12  20880845.99125    127244.77025      1952.87225        33.11025
R11  21294473.84323   -157100.84923     -2432.53923        19.28523
R01  20899546.14524   -184507.43724     -2927.47724        28.92924
R17  21504902.06625   -249986.18925     -3822.87125        34.08325
E02  26860588.80123     86239.48423      1509.19423        22.34423
E03  25748149.82723   -169887.97123     -2981.83023        19.37323
E08  23497883.95324    -77882.74824     -1188.61824        28.40524
E13  24329482.15024   -165776.49924     -2410.61824        25.67624
E26  25845010.37223     31990.90623       463.82623        21.93823
> 2024 10 27 15 48 36.0004023  0 17                      
G10  20304123.54826    -55618.51626      -835.06826        35.99826
G21  23688797.18724      8645.39524       117.41024        25.16724
G23  21586271.43523   -228623.17723     -3434.35523        21.85423
G25  23446867.07224    138894.98724      2071.71024        26.28924
G28  22558116.14123    153670.55423      2254.22723        23.07823
G32  21009396.09825     -6300.89125      -100.11625        29.80325
R02  19920028.25124    -15020.01824      -228.04524        26.18224
R18  21682264.68124    -27252.07324      -435.42824        28.97024
R12  20880262.89525    129196.46125      1951.08425        32.54025
R11  21294714.57623   -159525.65023     -2433.19623        18.39123
R01  20899884.61124   -187435.65124     -2928.58724        28.79024
R17  21505397.62325   -253809.93325     -3824.47725        34.03725
E02  26860095.34323     87741.15523      1508.76723        22.62323
E03  25748507.77923   -172867.21423     -2978.71423        18.20823
E08  23497905.23924    -79071.66524     -1189.01124        28.75324
E13  24329728.57924   -168187.44324     -2411.91124        25.62524
E26  25844709.68023     32449.52723       463.94123        20.06923
> 2024 10 27 15 48 37.0004017  0 18                      
G10  20304104.96126    -56454.51026      -836.06726        35.64026
G21  23688605.32024      8758.16524       114.03324        26.08124
G23  21586745.10723   -232053.45923     -3434.94523        19.36323
G25  23446300.46424    140965.42524      2068.26924        25.98124
G28  22557509.06123    155924.86223      2253.54923        22.58423
G32  21009232.41124     -6401.75424      -101.74524        28.97924
R02  19919905.63624    -15246.73224      -231.79124        26.77024
R18  21682162.15124    -27688.26024      -437.29824        29.41124
R12  20879719.67125    131146.83925      1950.01425        31.98425
R11  21295002.07723   -161959.95923     -2436.49323        19.01123
R01  20900244.06224   -190364.81224     -2929.64924        28.35724
R17  21505927.05725   -257634.99225     -3825.53225        33.62125
E02  26859625.56823     89240.62823      1508.57623        22.09023
E03  25748888.81523   -175846.62023     -2979.65523        20.11423
E08  23497952.00624    -80261.47924     -1189.93724        27.82224
E13  24330006.78724   -170599.60724     -2413.02624        25.76024
E25  26909612.06323    -25673.45023      -398.93623        19.80823
E26  25844443.46423     32906.24223       462.97423        20.82323
> 2024 10 27 15 48 38.0004011  0 17                      
G10  20304084.57526    -57289.63926      -835.04926        36.07126
G21  23688401.76124      8870.97024       110.87424        25.94324
G23  21587219.67923   -235482.76623     -3434.12323        18.66723
G25  23445724.86224    143036.07724      2069.14624        25.08424
G28  22556900.78323    158179.23823      2254.63723        23.49923
G32  21009077.11924     -6502.28024       -99.30224        28.31924
R02  19919758.73824    -15479.05224      -231.22424        27.34724
R18  21682064.71924    -28124.81524      -435.91024        29.28324
R12  20879174.64825    133097.02525      1950.98325        31.68025
R11  21295298.57223   -164400.97623     -2437.65323        20.65923
R01  20900612.20724   -193293.78924     -2927.98824        28.26424
R17  21506479.57425   -261460.24525     -3824.79325        33.68425
E02  26859158.79123     90737.96323      1508.38023        23.39923
E03  25749277.04623   -178825.70423     -2980.08023        20.87223
E08  23497994.57724    -81451.05124     -1188.44124        27.98624
E13  24330282.89624   -173011.74924     -2411.64424        25.95824
E26  25844174.55023     33428.37223       462.01523        22.14523
> 2024 10 27 15 48 39.0004005  0 17                      
G10  20304061.79126    -58125.02926      -835.80726        36.06626
G21  23688200.00024      8983.96824       114.12324        25.23724
G23  21587678.96123   -238929.35923     -3434.81323        18.14423
G25  23445138.16924    145108.48524      2070.84124        23.53424
G28  22556291.60424    160433.89924      2255.55124        23.90424
G32  21008913.73224     -6602.49724      -100.54124        27.86224
R02  19919634.62424    -15710.99824      -232.28724        27.35624
R18  21681972.08324    -28561.80024      -435.39224        28.31124
R12  20878633.52325    135047.30925      1950.12825        31.44225
R11  21295577.07923   -166840.23323     -2436.84223        21.15223
R01  20900995.04224   -196221.22724     -2930.67224        27.94924
R17  21507006.01025   -265285.38425     -3825.49525        33.17025
E02  26858691.41523     92233.30523      1508.46923        22.94423
E03  25749663.47923   -181805.11423     -2980.34223        20.41823
E08  23498044.04324    -82640.19124     -1189.54324        27.26024
E13  24330567.39924   -175423.61524     -2412.19724        24.76224
E25  26909407.00523    -26473.81223      -399.48723        20.42423
> 2024 10 27 15 48 40.0003999  0 19                      
G10  20304040.20526    -58960.74926      -836.24726        35.91026
G12  23672084.95723     45080.81823       620.17723        22.88723
G21  23687989.24624      9096.96624       111.78624        24.38324
G23  21588148.73623   -242362.99323     -3433.40323        17.56123
G25  23444566.16524    147185.74224      2071.11924        24.42424
G28  22555681.22723    162688.61423      2255.01923        21.41223
G32  21008753.04324     -6702.82324      -100.84324        28.35624
R02  19919482.62924    -15943.07924      -234.90624        26.62524
R18  21681869.55424    -28999.27324      -436.70324        27.80824
R12  20878088.20025    136997.04525      1948.85325        30.32725
R11  21295851.98823   -169277.81323     -2439.84823        19.66923
R01  20901346.99924   -199149.89324     -2929.43924        27.35424
R17  21507536.64225   -269111.00625     -3826.33425        33.36325
E02  26858224.33823     93726.92323      1508.83623        22.03823
E03  25750051.71023   -184784.67523     -2979.65423        19.17523
E08  23498090.81024    -83829.23124     -1189.45924        27.09724
E13  24330842.30824   -177835.79024     -2412.93224        24.65524
E25  26909305.37623    -26862.03723      -400.16723        20.19123
E26  25843639.42123     34354.51723       461.59823        18.31423
> 2024 10 27 15 48 41.0003993  0 19                      
G10  20304020.71926    -59797.48126      -836.80026        36.68026
G12  23671783.96523     45693.90523       618.24423        23.47223
G21  23687782.68924      9208.59224       109.79224        25.23624
G23  21588640.39522   -245796.38722     -3433.40322        16.82822
G25  23443994.16124    149256.04224      2071.64024        24.55724
G28  22555075.04623    164941.10423      2253.47223        23.32623
G32  21008592.95424     -6803.88224      -100.76424        28.00124
R02  19919331.53424    -16175.86124      -232.90324        28.24324
R18  21681740.34324    -29438.06324      -438.61524        28.16724
R12  20877549.77325    138945.74525      1948.49625        31.23325
R11  21296108.91123   -171719.42323     -2439.29823        19.85123
R01  20901735.82924   -202079.06224     -2928.11524        27.41424
R17  21508074.17025   -272937.69025     -3826.75225        34.75525
E02  26857757.26223     95219.00623      1509.05323        23.45023
E03  25750439.64223   -187765.13623     -2980.67223        21.49523
E08  23498132.78124    -85018.99724     -1189.89824        28.00924
E13  24331117.21824   -180248.92224     -2413.26824        25.75124
E25  26909198.94923    -27261.42523      -401.09423        21.61523
E26  25843372.60523     34817.36223       462.57023        19.40023
> 2024 10 27 15 48 42.0003986  0 17                      
G10  20303970.05426    -60635.12326      -837.83626        36.92326
G12  23671456.59224     46319.42624       618.25924        24.57624
G21  23687559.94324      9319.17924       112.44424        25.04524
G25  23443390.37924    151325.70624      2071.43124        24.50324
G28  22554436.18924    167194.35024      2252.84124        23.55824
G32  21008402.28624     -6905.71424      -106.34724        28.24024
R02  19919176.84124    -16409.51524      -234.43124        28.33324
R18  21681627.32224    -29878.46724      -440.99124        28.97224
R12  20876959.18225    140893.31625      1947.37125        31.36425
R11  21296356.53923   -174164.96923     -2439.96323        22.23323
R01  20902051.81124   -205009.23224     -2930.20224        28.38024
R17  21508584.41725   -276765.57325     -3828.23125        34.44725
E02  26857259.30624     96709.48024      1489.79824        23.63824
E03  25750795.19523   -190745.94823     -2981.05323        21.35623
E08  23498146.57224    -86209.37524     -1190.44324        27.98124
E13  24331375.93924   -182662.83124     -2413.54524        25.79824
E26  25843077.90923     35279.51123       461.72523        19.12023
> 2024 10 27 15 48 43.0003980  0 18                      
G10  20303949.06926    -61473.19526      -837.02226        36.99126
G12  23671150.20424     46929.23724       617.95724        23.87624
G21  23687357.58424      9429.88524       109.40724        25.87024
G25  23442826.76924    153395.67224      2071.20624        25.60224
G28  22553826.41124    169447.54224      2253.59424        24.15724
G32  21008249.99124     -7007.22324      -101.04424        28.62124
R02  19919036.83824    -16642.73424      -232.37124        28.68224
R18  21681531.38824    -30318.97924      -440.24024        28.73924
R12  20876423.45325    142840.83825      1948.29925        31.84125
R11  21296641.64223   -176610.87623     -2439.78823        22.03223
R01  20902416.05824   -207938.89524     -2929.21324        28.54824
R17  21509122.24525   -280593.41025     -3827.43225        34.57725
E02  26856791.93023     98198.61623      1507.90023        22.53823
E03  25751181.62823   -193726.02623     -2979.98023        20.08523
E08  23498195.73824    -87399.30924     -1188.63224        28.21224
E13  24331651.14824   -185076.76024     -2412.89024        25.60024
E25  26908962.11323    -28061.17223      -402.03823        22.44323
E26  25842808.39623     35740.32923       461.09323        20.86323
> 2024 10 27 15 48 44.0003974  0 17                      
G10  20303929.58226    -62309.99326      -837.58926        36.95126
G12  23670846.21423     47547.13823       618.71123        23.08623
G21  23687168.71424      9540.95624       111.26924        25.82324
G25  23442250.56824    155466.37824      2071.27624        25.64324
G28  22553220.23124    171701.13224      2253.16424        23.68124
G32  21008089.30224     -7108.21624      -101.17324        28.54624
R02  19918898.03424    -16875.60524      -233.03224        27.70024
R18  21681432.45724    -30759.75324      -441.31124        28.33924
R12  20875884.12625    144788.48025      1947.41525        31.10225
R11  21296916.85123   -179051.38123     -2443.56723        20.95623
R01  20902809.08624   -210868.01924     -2929.63324        28.08024
R17  21509654.07625   -284421.08525     -3828.21725        34.71325
E03  25751570.45923   -196705.26323     -2980.06923        20.05723
E08  23498243.40524    -88588.69524     -1189.02624        27.50824
E13  24331932.05424   -187490.40324     -2414.32024        25.95724
E25  26908855.98723    -28463.50623      -402.43623        20.43023
E26  25842536.48423     36200.34023       460.92123        20.27123
> 2024 10 27 15 48 45.0003968  0 18                      
G10  20303909.19626    -63148.19026      -838.98726        37.19326
G12  23670553.61723     48163.83023       618.32123        23.22823
G21  23686956.46124      9650.97824       112.40124        25.93524
G25  23441672.26824    157536.03224      2073.39024        26.34024
G28  22552613.15124    173956.06424      2253.45624        24.41524
G32  21007917.82124     -7209.96824      -102.34524        28.69224
R02  19918772.72124    -17109.15324      -233.93624        28.12124
R18  21681357.50924    -31201.79224      -443.54124        28.91824
R12  20875343.60025    146735.04025      1946.05725        31.48525
R11  21297199.25623   -181491.40323     -2445.55123        22.57823
R01  20903160.14324   -213797.82524     -2929.83224        27.62624
R17  21510184.40925   -288249.78225     -3829.63925        34.72925
R03  22695561.69023    122745.63023      1830.89423        22.82723
E03  25751958.69023   -199684.38823     -2978.82123        18.95723
E08  23498289.27324    -89778.69824     -1190.23324        27.78624
E13  24332211.46124   -189904.67424     -2414.73024        26.63624
E25  26908753.15823    -28865.94823      -403.29323        21.58423
E26  25842268.47023     36660.72023       459.20923        19.39123
> 2024 10 27 15 48 46.0003962  0 18                      
G10  20303889.11026    -63987.85326      -839.60026        37.26426
G12  23670258.62123     48781.31923       617.51423        22.30623
G21  23686760.39724      9759.53824       107.77324        25.35724
G25  23441096.66624    159604.84224      2067.29524        26.17424
G28  22552005.17224    176208.31524      2252.75024        24.37324
G32  21007761.92924     -7312.90124      -102.95124        28.81224
R02  19918614.73024    -17343.80024      -233.94624        27.56924
R18  21681266.97124    -31645.58924      -444.09824        28.62024
R12  20874797.67825    148679.92525      1944.67525        31.85825
R11  21297469.36923   -183939.25523     -2444.98323        21.17923
R01  20903532.18624   -216728.98224     -2931.25024        27.68424
R17  21510719.53925   -292080.10325     -3830.35825        34.53325
R03  22695060.43724    124575.09224      1829.64424        23.52824
E02  26855390.10023    102654.54323      1507.07523        22.53423
E03  25752343.62323   -202666.14323     -2980.44623        19.85523
E08  23498337.24024    -90969.87624     -1191.20724        28.47824
E13  24332493.56524   -192320.57524     -2415.56224        26.35524
E26  25841998.65723     37120.29723       459.48823        19.39523
> 2024 10 27 15 48 47.0003956  0 19                      
G10  20303870.52326    -64828.08926      -841.07326        36.09426
G12  23669966.92323     49396.43623       614.98223        21.38323
G21  23686563.73324      9867.55924       109.68724        24.21524
G25  23440530.35924    161671.58724      2064.52624        23.94124
G28  22551398.39223    178456.33323      2252.88023        22.86823
G32  21007599.44224     -7416.20124      -103.84424        28.68024
R02  19918489.71724    -17578.97124      -236.66324        26.50624
R18  21681136.86124    -32090.38524      -447.17124        27.38724
R12  20874263.44825    150624.30325      1943.95925        30.91725
R11  21297746.67723   -186392.03323     -2446.33323        20.08923
R01  20903897.63324   -219660.26724     -2933.02324        26.50324
R17  21511254.36825   -295911.09425     -3831.65325        33.42625
R03  22694523.50823    126403.50123      1830.34723        22.74123
E02  26854923.62323    104156.80523      1507.02623        20.80523
E03  25752729.15723   -205647.35823     -2980.10223        19.74023
E08  23498387.30524    -92161.22324     -1191.80424        27.53924
E13  24332772.67224   -194737.00624     -2417.73324        25.18224
E25  26908547.50023    -29674.94823      -404.31823        20.29823
E26  25841732.14123     37578.62923       459.11223        18.82823
> 2024 10 27 15 48 48.0003949  0 18                      
G10  20303818.95925    -65668.09425      -839.68625        35.48325
G12  23669642.84723     50007.20923       615.00423        19.79423
G21  23686331.69424      9975.63724       106.85624        24.42124
G25  23439931.97324    163732.84824      2065.34924        23.61924
G28  22550763.43123    180704.22523      2253.09123        22.69323
G32  21007409.07324     -7519.11124      -102.86924        28.44424
R02  19918331.72624    -17813.77724      -237.42424        26.76424
R18  21680984.86724    -32534.12724      -448.54124        26.84324
R12  20873680.65225    152568.60125      1944.32525        31.01425
R11  21297989.20923   -188841.22523     -2446.36423        19.94723
R01  20904242.09424   -222591.27724     -2931.77224        26.92924
R17  21511768.21325   -299742.07525     -3831.28425        33.10425
R03  22693954.50223    128236.47523      1832.47623        22.43623
E02  26854422.67023    105664.01523      1506.50823        20.30423
E03  25753086.80922   -208627.94422     -2978.51322        17.32122
E08  23498402.29524    -93352.18224     -1191.05024        27.62624
E13  24333024.79724   -197153.01224     -2417.38624        23.59724
E25  26908416.79123    -30079.67723      -403.10923        19.19523
> 2024 10 27 15 48 49.0003943  0 18                      
G10  20303799.77225    -66508.40725      -839.79125        35.36125
G12  23669346.65223     50619.04123       615.43523        18.33123
G21  23686118.84124     10084.71324       105.62024        23.59824
G25  23439353.67324    165797.81824      2065.99424        24.36224
G28  22550154.85323    182954.50123      2254.39023        22.71523
G32  21007253.78124     -7621.55924      -102.14924        27.98324
R02  19918183.92824    -18048.07424      -236.98424        26.45424
R18  21680941.09724    -32975.70224      -445.49124        26.64324
R12  20873132.63125    154513.04325      1943.97525        30.69325
R11  21298272.21323   -191290.57423     -2447.87123        18.78223
R01  20904591.65224   -225521.81724     -2932.56224        26.38624
R17  21512305.74125   -303572.87725     -3831.08225        32.73325
R03  22693389.39323    130069.36323      1831.90523        21.21923
E02  26853955.59323    107171.40523      1507.27823        20.09623
E03  25753468.14523   -211605.42723     -2978.57123        17.60623
E08  23498446.66424    -94542.48824     -1190.13024        26.58224
E13  24333305.70323   -199568.86723     -2417.40923        22.07123
E25  26908317.26023    -30484.37123      -404.07823        18.76923
> 2024 10 27 15 48 50.0003937  0 19                      
G10  20303782.08426    -67348.15526      -840.63026        36.44126
G12  23669062.44923     51246.46523       614.97723        17.84023
G21  23685928.47324     10197.40524       108.28924        23.89524
G25  23438781.36924    167866.71424      2067.43724        25.62624
G28  22549545.37523    185207.62723      2252.88423        23.26823
G32  21007090.69425     -7724.28325      -103.26725        29.74825
R02  19918049.62124    -18282.67324      -231.62624        26.90224
R18  21680833.77124    -33419.13324      -444.44524        28.32424
R12  20872593.60425    156456.86225      1942.95425        31.97225
R11  21298561.81223   -193740.53623     -2448.84223        21.22323
R01  20904969.09124   -228452.47124     -2931.36024        27.83324
R17  21512836.37325   -307404.24425     -3832.11825        33.87725
R03  22692877.64823    131905.81823      1828.89123        21.83623
E02  26853489.41623    108678.65623      1507.28323        21.06523
E03  25753854.87723   -214585.12323     -2979.50823        17.57623
E08  23498495.83024    -95733.00124     -1191.02624        28.35524
E13  24333586.60923   -201984.92123     -2416.25223        22.86023
E25  26908214.13123    -30889.09823      -404.56023        19.11623
E26  25840909.21123     38954.03523       458.85723        19.33323
> 2024 10 27 15 48 51.0003931  0 20                      
G10  20303762.59826    -68189.63726      -842.18126        35.83326
G12  23668762.05723     51862.34923       615.85423        17.58023
G21  23685727.61223     10300.08423       107.39723        23.21523
G25  23438210.56424    169934.98724      2071.85724        24.12824
G28  22548934.99723    187460.09623      2253.40723        21.72723
G31  25470634.94623      6080.34123      3038.51723        22.62923
G32  21006933.30324     -7827.90824      -104.00224        28.93424
R02  19917916.81324    -18518.05424      -231.26024        26.42024
R18  21680726.14624    -33866.85024      -448.66524        28.02724
R12  20872049.18125    158399.37625      1941.72125        31.30825
R11  21298835.82323   -196189.59223     -2451.14023        20.94923
R01  20905337.53624   -231384.04424     -2932.13724        27.23024
R17  21513373.60125   -311236.98825     -3833.66225        33.06725
R03  22692372.19823    133733.02523      1827.77523        20.92923
E02  26853022.33923    110185.02223      1507.11423        20.58823
E03  25754243.40823   -217564.46923     -2979.50823        18.39323
E08  23498538.70024    -96924.27724     -1191.17324        28.27624
E13  24333865.71523   -204402.30323     -2417.68123        22.85323
E25  26908117.89823    -31293.81123      -404.75823        19.08423
E26  25840637.89923     39411.49523       457.56123        18.55923
> 2024 10 27 15 48 52.0003925  0 19                      
G10  20303740.11326    -69032.43626      -843.52726        36.34126
G12  23668458.96723     52478.17323       615.85423        17.98823
G21  23685525.25224     10399.77324       106.09924        23.53224
G25  23437643.95724    172002.11824      2065.52124        25.67424
G28  22548327.01823    189709.74323      2253.00923        23.36723
G32  21006768.41725     -7932.71325      -105.11825        29.74825
R02  19917780.40824    -18754.77324      -237.60224        27.41224
R18  21680636.20824    -34316.26724      -450.49024        28.60624
R12  20871509.55525    160340.30725      1940.32525        32.20725
R11  21299114.33023   -198639.52023     -2452.94623        22.46923
R01  20905712.57624   -234316.86224     -2933.54524        27.62524
R17  21513916.22625   -315071.23825     -3834.75825        34.02025
R03  22691879.33923    135559.94223      1828.64423        21.17523
E02  26852557.66123    111690.16323      1505.86123        22.30023
E03  25754642.43223   -220543.85723     -2979.50823        18.41923
E08  23498589.66524    -98116.75324     -1192.97024        28.88224
E13  24334146.02124   -206821.07524     -2419.32924        23.76524
E25  26908000.97923    -31698.60323      -404.90323        18.97423
E26  25840371.08323     39868.45023       457.56123        18.94923
> 2024 10 27 15 48 53.0003919  0 20                      
G10  20303721.52626    -69874.51926      -841.87626        36.54926
G12  23668156.17623     53093.77723       615.85423        18.20623
G21  23685328.28824     10499.83324       105.60624        24.13424
G25  23437061.76024    174070.29824      2066.31124        26.07424
G28  22547716.94023    191955.42323      2250.95623        22.88723
G31  25469040.95023     12162.95723      3040.97323        21.31123
G32  21006609.22725     -8036.52425      -103.08025        29.92025
R02  19917645.20124    -18990.39524      -234.66624        27.47924
R18  21680532.48024    -34765.29824      -448.40324        28.68424
R12  20870979.82125    162281.87425      1941.83125        31.96525
R11  21299391.03823   -201095.17023     -2450.90923        21.63423
R01  20906094.51224   -237248.46824     -2934.34724        26.83824
R17  21514442.96125   -318904.88625     -3833.26625        34.16725
R03  22691337.01423    137385.15623      1830.60823        19.83623
E02  26852091.18423    113196.41723      1506.53723        22.32023
E03  25755035.46023   -223523.25823     -2979.50823        17.78523
E08  23498635.53324    -99308.12724     -1190.75824        28.51424
E13  24334426.62724   -209238.96824     -2417.87424        23.86324
E25  26907891.55423    -32103.45623      -404.88323        19.22523
E26  25840094.97423     40324.84523       456.58623        19.22423
> 2024 10 27 15 48 54.0003912  0 19                      
G10  20303670.56126    -70716.33526      -842.18326        36.45126
G21  23685097.44824     10608.34524       106.24924        24.13024
G25  23436460.37624    176139.06924      2069.96324        26.38124
G28  22547079.28224    194204.20724      2250.33624        23.81524
G31  25468246.50023     15204.70023      3040.97323        20.82023
G32  21006420.95725     -8140.00825      -103.79525        30.48225
R02  19917477.31724    -19225.65324      -235.31624        28.21624
R18  21680410.76424    -35214.50024      -449.59624        29.15324
R12  20870399.12325    164223.55025      1941.17225        32.15025
R11  21299641.36523   -203549.76423     -2450.68223        22.06423
R01  20906426.68224   -240179.88324     -2932.20524        27.08324
R17  21514941.51625   -322738.32625     -3833.56025        34.08825
R03  22690774.00423    139216.54223      1830.23923        20.11323
E02  26851596.52723    114703.62723      1506.53523        21.75923
E03  25755394.01223   -226502.94823     -2979.50823        17.67223
E08  23498650.52324   -100498.89324     -1190.57824        27.99624
E13  24334675.45524   -211656.37624     -2417.26924        24.74424
E25  26907759.64623    -32509.21123      -404.87723        19.46923
E26  25839796.68123     40781.08423       456.58623        19.22923
> 2024 10 27 15 48 55.0003906  0 19                      
G10  20303648.67726    -71559.09326      -842.77726        36.33826
G21  23684896.28724     10714.13424       106.42224        24.40324
G25  23435882.07624    178207.51224      2070.03924        25.64324
G28  22546468.30524    196454.87424      2249.22224        23.50224
G31  25467489.52423     18245.18123      3040.97323        19.98323
G32  21006264.46625     -8243.64325      -104.23125        30.23325
R02  19917334.91624    -19461.18924      -235.86024        28.94124
R18  21680332.21824    -35664.55924      -450.54124        29.49624
R12  20869849.60425    166164.69625      1940.86825        32.18425
R11  21299913.27723   -206005.93423     -2452.31123        22.83423
R01  20906782.53624   -243111.20124     -2931.92624        27.36924
R17  21515487.43825   -326572.36725     -3834.56725        33.93125
R03  22690268.25423    141051.48123      1832.85023        20.50523
E02  26851131.24923    116210.36623      1506.81823        23.03423
E03  25755782.54323   -229482.46823     -2979.50823        18.11923
E08  23498695.49224   -101689.85124     -1191.25024        27.99224
E13  24334954.86124   -214074.45024     -2418.19424        25.75324
E25  26907657.71623    -32915.37223      -405.85923        19.88723
E26  25839539.45923     41237.93423       456.58623        19.24623
> 2024 10 27 15 48 56.0003900  0 18                      
G10  20303631.88826    -72402.10426      -844.50626        36.44326
G21  23684697.22523     10818.62623       106.73823        23.19223
G25  23435306.47524    180275.05124      2067.98224        25.66424
G28  22545860.02624    198704.41024      2249.95424        23.85124
G32  21006096.58225     -8348.24425      -105.22625        30.09625
R02  19917203.00724    -19697.77124      -238.03724        29.21424
R18  21680231.78825    -36116.25525      -452.56825        29.79425
R12  20869308.17925    168104.34225      1938.58325        32.54325
R11  21300203.17623   -208466.04723     -2452.92423        21.36223
R01  20907157.27624   -246043.71424     -2933.50924        27.23724
R17  21516021.96825   -330407.78825     -3836.48625        33.95325
R03  22689749.61323    142885.67123      1831.73123        21.19623
E02  26850663.87223    117716.22423      1505.40423        23.08023
E03  25756158.48323   -232461.70223     -2979.50823        18.02523
E08  23498741.95924   -102881.69924     -1192.28724        28.45824
E13  24335235.76724   -216493.59424     -2419.71724        24.95524
E25  26907560.88323    -33320.04123      -406.55423        20.17523
E26  25839263.95023     41694.64123       456.58623        19.31023
> 2024 10 27 15 48 57.0003894  0 18                      
G10  20303611.80226    -73246.82426      -844.38726        36.36626
G21  23684495.46523     10921.90623       105.23823        22.71123
G25  23434734.47124    182341.56724      2067.95124        25.91224
G28  22545249.64823    200952.43823      2250.40323        22.04123
G32  21005939.79025     -8453.90425      -105.07425        30.29025
R02  19917079.49324    -19935.25324      -237.07324        29.25124
R18  21680157.43925    -36569.54625      -453.16425        29.56925
R12  20868752.06425    170042.68825      1938.62725        32.13425
R11  21300486.78023   -210929.03423     -2455.99823        18.36723
R01  20907519.42524   -248977.09124     -2935.51324        26.32324
R17  21516557.39725   -334244.58825     -3836.79525        34.12525
R03  22689221.67923    144718.95223      1834.04023        21.66923
E02  26850199.79323    119221.04223      1504.35523        21.89323
E03  25756536.82123   -235441.46423     -2979.50823        18.44423
E08  23498792.92424   -104074.48824     -1192.21624        28.13524
E13  24335516.37324   -218914.16924     -2421.21924        24.94724
E25  26907458.65423    -33725.03223      -404.87723        19.98723
E26  25838998.63323     42151.09123       456.58623        19.14523
> 2024 10 27 15 48 58.0003888  0 16                      
G10  20303589.61726    -74091.02526      -843.98826        36.30726
G21  23684294.60423     11025.82223       105.38723        23.44423
G25  23434159.16924    184409.05224      2068.01324        26.16024
G28  22544644.36723    203194.12123      2248.01923        22.14923
G32  21005785.69725     -8558.80125      -104.33125        29.80525
R02  19916932.89424    -20172.08724      -236.66124        28.87924
R18  21680049.21424    -37022.72224      -453.00324        29.18624
R12  20868225.32825    171981.38925      1938.89425        31.64925
R11  21300763.48823   -213393.49723     -2456.64823        19.74223
R01  20907879.47624   -251909.76924     -2934.34824        26.03124
R17  21517097.62325   -338080.93925     -3836.30625        33.90925
R03  22688690.44623    146558.20023      1831.69123        20.77923
E02  26849735.41523    120726.50923      1505.45923        22.12523
E08  23498840.89124   -105266.43324     -1191.82224        28.56524
E13  24335795.77924   -221334.16724     -2419.52724        25.07824
E25  26907367.21723    -34133.03823      -407.48123        20.08923
> 2024 10 27 15 48 59.0003882  0 17                      
G10  20303570.43126    -74934.95926      -844.02826        36.44326
G21  23684094.64223     11131.05723       104.50323        22.60323
G23  21597091.84423   -307619.48223     -3437.29523        21.95823
G25  23433596.45924    186476.93524      2066.55824        25.89124
G28  22544038.48723    205441.18623      2247.04823        22.26423
G32  21005622.01025     -8663.25325      -104.47425        29.94025
R02  19916803.98424    -20408.33624      -236.23324        29.16124
R18  21679946.68525    -37475.96825      -453.16025        30.04425
R12  20867676.70825    173920.19325      1938.22625        31.54925
R11  21301030.60323   -215856.44023     -2457.32123        18.72823
R01  20908273.70324   -254841.87724     -2931.48824        26.14224
R17  21517629.75525   -341917.13525     -3836.14725        34.27425
R03  22688173.30423    148389.30523      1829.37823        20.28023
E02  26849270.43723    122232.50123      1505.60523        22.25623
E08  23498888.25824   -106457.72624     -1190.99524        28.34824
E13  24336077.88424   -223753.01924     -2419.37824        24.53024
E25  26907261.69023    -34540.66123      -408.09223        21.99123
> 2024 10 27 15 49 00.0003876  0 17                      
G10  20303550.64426    -75779.02626      -844.86426        35.98426
G21  23683894.68123     11240.84423       102.28623        21.86023
G23  21597563.11823   -311062.75923     -3438.93523        22.62023
G25  23433008.86624    188544.86324      2065.81624        25.22124
G28  22543429.60823    207692.66123      2246.24323        21.97223
G32  21005459.52325     -8767.63425      -105.09925        30.01425
R02  19916671.17524    -20644.61024      -237.13524        29.42824
R18  21679869.93825    -37929.86925      -454.97925        30.30125
R12  20867128.08825    175858.72425      1937.16425        31.46025
R11  21301328.29723   -218318.97623     -2456.96623        20.21023
R01  20908633.15424   -257774.11824     -2931.71624        25.77624
R17  21518176.27725   -345753.65025     -3837.53025        33.64925
R03  22687654.66423    150220.44723      1827.14823        18.03123
E02  26848803.36023    123739.31723      1507.07223        21.71623
E08  23498930.52924   -107648.92724     -1191.57224        28.06824
E13  24336357.29024   -226172.72424     -2419.83224        24.90824
E25  26907158.26223    -34948.96823      -407.64423        22.06223
> 2024 10 27 15 49 01.0003869  0 17                      
G10  20303499.97926    -76624.52026      -845.32726        36.02326
G21  23683666.23923     11343.40623       102.90823        20.77323
G23  21598012.50723   -314502.64023     -3439.73123        22.64423
G25  23432403.88424    190610.77224      2064.64624        25.86024
G28  22542788.95223    209939.66323      2247.39923        21.50223
G32  21005270.05425     -8873.78225      -107.01325        30.67825
R02  19916504.49124    -20882.14824      -237.92724        29.28724
R18  21679733.83325    -38385.69225      -456.41625        30.50125
R12  20866546.79025    177795.65525      1936.61925        31.57425
R11  21301572.02923   -220779.23723     -2456.15123        19.04623
R01  20908971.32024   -260707.75524     -2934.71124        26.29624
R17  21518678.12925   -349591.96325     -3839.14125        34.15525
R03  22687116.23623    152050.19523      1829.78523        20.23023
E02  26848309.00223    125245.05623      1506.13523        22.76823
E08  23498949.11624   -108840.60424     -1190.54424        28.85024
E13  24336607.01824   -228593.43024     -2420.15224        24.38624
E25  26907028.45223    -35357.73123      -408.32823        22.79823
> 2024 10 27 15 49 02.0003863  0 17                      
G10  20303485.29026    -77472.30726      -847.58526        35.87726
G21  23683466.27723     11442.78223       102.66523        22.17023
G23  21598487.97823   -317941.04823     -3439.52623        21.94223
G25  23431839.67524    192675.82224      2064.06524        24.72124
G28  22542182.47223    212182.38723      2247.61423        22.08923
G32  21005111.16425     -8981.33825      -107.64325        29.67525
R02  19916366.58624    -21121.52024      -241.37724        28.80124
R18  21679640.89725    -38844.00125      -457.93925        30.13025
R12  20866019.75525    179730.22725      1935.18725        31.28425
R11  21301848.43723   -223234.23423     -2459.27923        18.22223
R01  20909332.87024   -263640.03724     -2935.69424        25.48724
R17  21519218.95525   -353432.26325     -3840.14925        33.95525
R03  22686592.19923    153879.48423      1827.30823        17.75023
E02  26847843.42523    126749.20923      1505.10123        22.75823
E08  23498998.28224   -110034.50224     -1193.97924        28.65824
E13  24336887.92324   -231015.88424     -2423.50924        25.44524
E25  26906927.42223    -35767.44123      -409.70123        21.87123
> 2024 10 27 15 49 03.0003857  0 17                      
G10  20303469.10126    -78319.22026      -847.24326        36.21226
G21  23683263.01823     11545.62823       102.97823        21.44523
G23  21598950.85723   -321386.76523     -3440.10223        21.52323
G25  23431269.47024    194741.85724      2068.30424        25.71924
G28  22541574.79223    214426.10623      2249.07723        21.85323
G32  21004950.17625     -9087.82825      -106.57625        30.27625
R02  19916237.07624    -21359.97424      -238.43024        28.85124
R18  21679548.86125    -39301.88325      -458.14025        29.95825
R12  20865473.23325    181665.44125      1934.65525        31.83625
R11  21302133.24023   -225686.92723     -2459.17323        19.90323
R01  20909716.60424   -266581.63424     -2936.10124        26.03924
R17  21519761.87925   -357271.95525     -3840.00725        33.97125
R03  22686167.39323    155705.26823      1828.96223        17.64123
E02  26847377.84723    128251.59123      1504.99123        21.71723
E08  23499045.64924   -111227.56724     -1193.53224        28.58724
E13  24337167.62924   -233439.18324     -2421.69624        24.60224
E25  26906826.69123    -36178.80223      -410.12423        22.99523
> 2024 10 27 15 49 04.0003851  0 17                      
G10  20303451.11326    -79165.58726      -845.99326        36.61726
G21  23683060.65823     11653.70623       102.72223        21.67023
G23  21599419.73323   -324827.74223     -3439.28423        22.69523
G25  23430696.86624    196805.31824      2066.78324        25.57924
G28  22540965.91423    216674.09623      2247.86123        22.17023
G32  21004792.18525     -9193.93225      -107.13825        30.91925
R02  19916091.37725    -21597.72425      -237.00525        29.52225
R18  21679450.82825    -39759.41925      -456.66125        29.75725
R12  20864925.21325    183601.57125      1938.30625        32.28225
R11  21302418.34323   -228148.43223     -2459.51923        20.40123
R01  20910103.33724   -269513.26624     -2931.14124        25.64024
R17  21520296.10925   -361111.03825     -3838.45225        34.44125
R03  22685616.07523    157519.63323      1829.18623        17.54023
E02  26846911.97023    129753.02823      1505.05523        22.80323
E08  23499093.01624   -112420.29624     -1194.24524        28.89624
E13  24337448.53524   -235862.73024     -2421.71724        24.99424
E25  26906726.26123    -36590.77323      -410.17523        21.85223
> 2024 10 27 15 49 05.0003845  0 17                      
G10  20303430.42826    -80012.30826      -846.90226        36.76026
G12  23664551.77223     60416.89123       607.61023        22.22923
G21  23682862.79523     11758.76523       101.33423        21.27223
G23  21599888.60823   -328272.05823     -3438.03023        22.45223
G25  23430123.66324    198870.26924      2063.14124        26.34424
G28  22540358.23523    218921.63723      2246.90023        21.42623
G32  21004635.09425     -9300.04425      -106.03125        30.12425
R02  19915948.37624    -21835.62524      -237.69724        29.05524
R18  21679363.88925    -40217.99425      -458.48925        30.59125
R12  20864378.99125    185536.56225      1934.97325        32.18725
R11  21302703.14523   -230613.82923     -2460.21023        19.34023
R01  20910466.68524   -272439.25024     -2929.90124        24.92624
R17  21520843.83025   -364950.73325     -3840.31425        34.69825
R03  22685069.55323    159348.77823      1829.18623        17.57023
E02  26846445.79223    131251.93623      1504.77523        22.22723
E08  23499140.68325   -113612.55725     -1192.23325        29.66125
E25  26906624.63123    -37003.60223      -410.43423        22.13323
> 2024 10 27 15 49 06.0003839  0 18                      
G10  20303410.94126    -80859.75226      -848.29326        36.77926
G12  23664250.78023     61023.92823       606.93823        22.09223
G21  23682657.73723     11863.81823       101.32623        20.19523
G23  21600366.77723   -331715.65523     -3439.01823        22.05623
G25  23429545.36324    200936.48924      2065.25824        26.27224
G28  22539747.55723    221169.03523      2247.17423        22.10723
G32  21004473.80525     -9406.56325      -107.80825        29.66925
R02  19915810.47124    -22073.95424      -238.92524        28.54424
R18  21679282.34525    -40677.64725      -461.30025        30.23425
R12  20863846.26025    187470.80625      1933.00125        32.26125
R11  21303014.93023   -233077.62823     -2460.94623        19.12823
R01  20910830.93324   -275368.34524     -2938.97624        24.57124
R17  21521375.66225   -368791.30325     -3841.86625        34.30125
R03  22684498.14923    161178.16923      1829.18623        17.99723
E02  26845978.11623    132749.68223      1505.19523        21.53623
E08  23499185.05324   -114805.27024     -1193.63224        29.44524
E13  24338009.74624   -240713.11824     -2422.07124        24.14224
E25  26906522.10223    -37416.85023      -410.57623        22.03823
> 2024 10 27 15 49 07.0003832  0 18                      
G10  20303363.57426    -81708.35426      -849.19026        36.70526
G12  23663919.80923     61632.53323       605.54723        19.29323
G21  23682425.99823     11965.54923       100.66923        21.27323
G23  21600814.06823   -335156.67123     -3439.59623        22.17023
G25  23428944.57924    203001.88624      2064.37524        25.57224
G28  22539112.59724    223415.52524      2246.28324        24.06924
G32  21004283.13725     -9514.30125      -107.33125        29.99025
R02  19915652.48124    -22313.28024      -239.91924        28.90424
R18  21679139.94425    -41138.72925      -462.00325        30.19025
R12  20863271.85725    189403.85425      1932.50825        32.13725
R11  21303239.77423   -235579.03023     -2461.34323        19.26923
R01  20911146.91424   -278303.75124     -2934.03424        24.46624
R17  21521889.20625   -372633.06325     -3842.37225        34.26325
R03  22683952.22723    163007.19123      1829.18623        17.80623
E02  26845480.76023    134246.14623      1505.02423        22.21123
E08  23499202.44124   -115998.70524     -1193.79624        29.36624
E13  24338262.47124   -243138.71724     -2422.73124        24.43024
E25  26906392.89223    -37830.25323      -411.45323        22.79423
> 2024 10 27 15 49 08.0003826  0 17                      
G10  20303347.08526    -82557.27926      -849.27126        36.84626
G12  23663627.81123     62241.66523       605.34623        18.93723
G21  23682231.73223     12064.88223       100.18923        20.64623
G23  21601289.83823   -338600.38423     -3440.04323        22.14923
G25  23428372.57524    205067.54124      2069.01024        25.25324
G28  22538505.51724    225661.86224      2246.33124        24.38624
G32  21004127.54525     -9621.29725      -107.40925        29.86225
R02  19915522.97024    -22552.52524      -239.20724        28.22724
R18  21679040.71225    -41600.58825      -462.61725        29.92125
R12  20862731.03225    191336.36625      1932.04925        32.79325
R11  21303546.76123   -238040.37323     -2461.34323        18.85123
R01  20911516.85824   -281242.74724     -2934.59524        24.55624
R17  21522428.83325   -376475.36825     -3842.32425        34.17925
E02  26845015.48223    135741.55823      1504.58623        22.15423
E08  23499250.70725   -117192.21725     -1193.20925        29.79825
E13  24338544.27624   -245562.54424     -2423.43624        25.56424
E25  26906293.06124    -38243.01324      -412.00724        23.64224
> 2024 10 27 15 49 09.0003820  0 17                      
G10  20303327.29926    -83405.56326      -848.63426        36.14826
G21  23682033.27023     12169.18423        99.03823        19.37423
G23  21601763.81023   -342040.68623     -3439.54123        23.04723
G25  23427801.17124    207134.13424      2069.59024        24.86524
G28  22537898.43824    227908.92524      2246.33924        25.20024
G32  21003965.95724     -9727.96624      -106.93024        29.22724
R02  19915376.67224    -22791.11324      -236.00124        27.11024
R18  21678953.47324    -42062.14924      -462.71724        28.99324
R12  20862194.70325    193269.46225      1932.45225        32.78125
R11  21303760.21423   -240501.71623     -2461.34323        18.14223
R01  20911887.10223   -284184.79723     -2934.34023        23.44323
R17  21522973.85525   -380317.08425     -3841.85725        33.44425
E02  26844546.60723    137236.26223      1505.02723        22.40623
E08  23499296.27624   -118384.86724     -1192.94424        28.92824
E13  24338825.18224   -247985.54024     -2423.52024        24.74724
E25  26906189.93223    -38654.50923      -411.87823        21.97823
E26  25835763.57323     47587.32623       451.88923        20.41423
> 2024 10 27 15 49 10.0003814  0 17                      
G10  20303311.11025    -84254.48725      -849.08225        35.32325
G21  23681831.80923     12266.79523        99.10223        19.88623
G23  21602238.98123   -345476.69623     -3440.36223        22.85823
G25  23427224.67024    209200.87324      2066.29724        23.89524
G28  22537291.35824    230155.43824      2246.14524        23.52224
G32  21003812.16324     -9834.93124      -106.44424        28.37424
R02  19915219.28124    -23030.12824      -237.29824        26.90924
R18  21678856.04024    -42524.77124      -463.14424        27.41824
R12  20861655.97625    195201.70925      1932.07125        31.65525
R11  21304051.01223   -242963.05923     -2461.34323        18.09323
R01  20912265.14024   -287125.05324     -2933.57324        23.61824
R17  21523503.58925   -384159.66625     -3842.81225        32.51025
E02  26844079.83023    138730.08023      1505.58823        22.37523
E08  23499343.34324   -119577.78824     -1192.99524        27.49624
E13  24339105.48824   -250409.71824     -2423.75624        24.91424
E25  26906088.00323    -39067.01823      -412.13023        21.22723
E26  25835499.75623     48038.63123       450.79323        20.48623
> 2024 10 27 15 49 11.0003808  0 16                      
G10  20303288.92625    -85104.17225      -850.63425        35.09325
G21  23681638.44323     12364.53323       102.49323        19.28523
G23  21602714.45223   -348914.64723     -3441.07323        22.29223
G25  23426646.97024    211268.37324      2062.93124        24.26924
G28  22536686.07724    232405.60024      2247.02324        24.08424
G32  21003647.87724     -9942.60424      -108.40924        28.16624
R02  19915112.25524    -23269.73624      -236.27024        26.29424
R18  21678751.71224    -42988.54424      -464.54624        27.61824
R12  20861112.45225    197133.04025      1930.74825        31.03525
R01  20912627.88924   -290061.89724     -2933.36124        24.00424
R17  21524037.51925   -388003.13825     -3844.32325        32.68225
E02  26843612.75423    140223.03023      1505.05923        21.79923
E08  23499388.91224   -120771.05824     -1193.69824        27.64124
E13  24339386.09424   -252834.27824     -2424.92324        23.85524
E25  26905987.57223    -39463.63423      -412.17823        20.40523
E26  25835241.33523     48490.79423       450.38623        20.70623
> 2024 10 27 15 49 12.0003802  0 15                      
G10  20303271.83725    -85955.05825      -851.64125        35.42425
G21  23681438.48123     12458.06423       100.33423        20.26623
G23  21603188.72423   -352361.16223     -3441.11323        23.05623
G25  23426079.46324    213329.27324      2065.61724        24.30324
G28  22536081.69524    234652.45424      2246.84524        24.37424
G32  21003488.38824    -10051.25324      -109.46824        27.48224
R02  19914988.74024    -23510.32924      -241.21424        27.67424
R18  21678674.36624    -43454.01124      -466.57824        28.11824
R12  20860575.22425    199062.97925      1929.26125        31.25425
R01  20913004.12924   -292991.07524     -2934.22324        24.51024
R17  21524581.64225   -391847.90725     -3845.35825        33.34825
E08  23499438.67724   -121965.33924     -1195.06924        28.08824
E13  24339666.10024   -255260.04924     -2426.24524        24.68124
E25  26905886.54223    -39876.87023      -413.44523        21.69223
E26  25834976.91823     48942.38923       449.44923        20.65723
> 2024 10 27 15 49 13.0003796  0 16                      
G10  20303258.94626    -86806.06326      -850.56426        35.83026
G21  23681243.01723     12551.93523       101.39823        20.80723
G23  21603665.09424   -355802.75324     -3440.42024        24.48224
G25  23425499.06424    215393.60824      2064.80024        24.51524
G28  22535473.11724    236894.47224      2245.60024        24.21524
G32  21003322.90224    -10160.15124      -107.81224        28.59324
R02  19914852.03524    -23750.82124      -239.92924        28.41324
R18  21678583.22924    -43919.94524      -465.10224        28.72824
R12  20860017.91025    200992.66825      1929.84525        31.98625
R01  20913370.47524   -295924.18124     -2932.84324        25.46324
R17  21525119.77025   -395692.96425     -3844.85825        34.05925
E02  26842678.00123    143206.58123      1504.37823        21.96823
E08  23499484.24624   -123159.44524     -1194.10924        28.51624
E13  24339947.00524   -257686.04324     -2426.03624        24.86624
E25  26905783.11423    -40288.45123      -412.97523        21.62323
E26  25834713.40023     49394.15023       450.79423        20.58423
> 2024 10 27 15 49 14.0003789  0 15                      
G10  20303204.68426    -87656.77826      -851.33626        36.28626
G21  23681021.47023     12648.81823        97.88923        20.45823
G23  21604112.38424   -359248.12024     -3442.77624        24.19224
G25  23424906.07524    217458.77324      2069.83824        24.39924
G28  22534837.55724    239144.94624      2245.99624        25.01424
G32  21003136.43124    -10267.62824      -108.55524        28.78024
R02  19914674.85724    -23990.83324      -240.76024        28.69424
R18  21678457.61624    -44385.90824      -465.94824        28.17624
R12  20859445.60625    202922.61525      1929.44725        32.23025
R01  20913717.33524   -298856.49524     -2932.71724        25.57024
R17  21525624.62025   -399537.67525     -3845.36725        33.96425
E02  26842183.34323    144697.25823      1490.34423        22.84423
E08  23499501.93324   -124352.75024     -1193.64824        28.72424
E25  26905653.60423    -40701.15523      -413.20323        20.69323
E26  25834407.91223     49845.52123       450.47323        20.64023
> 2024 10 27 15 49 15.0003783  0 16                      
G10  20303187.89526    -88507.54626      -851.13426        36.57726
G21  23680822.40823     12746.16623        97.53923        19.83523
G23  21604586.95624   -362691.11524     -3442.48324        25.05524
G25  23424326.57624    219524.05624      2068.69924        24.26024
G28  22534231.37624    241394.41024      2246.20924        25.78124
G32  21002970.04624    -10375.45124      -107.41424        28.39224
R02  19914543.24924    -24230.60924      -240.54624        29.32024
R18  21678361.98224    -44852.41924      -466.67124        28.85224
R12  20858908.67825    204852.20125      1928.88725        32.56825
R01  20914080.68324   -301790.02124     -2934.77724        25.92124
R17  21526160.64925   -403382.62225     -3844.95125        33.66625
E02  26841717.46624    146251.36824      1503.94024        23.96624
E08  23499552.59824   -125545.94924     -1192.90124        28.84024
E13  24340480.63624   -262536.89824     -2425.70724        25.04724
E25  26905548.97623    -41114.22123      -414.24623        20.80223
E26  25834138.39823     50297.57023       449.49723        20.58623
> 2024 10 27 15 49 16.0003777  0 16                      
G10  20303170.20826    -89358.93626      -851.13426        36.70426
G21  23680625.74423     12844.45823        96.51723        21.54123
G23  21605061.82724   -366134.80124     -3442.94924        23.82224
G25  23423760.26824    221591.62724      2071.19024        23.83324
G28  22533624.59624    243639.68624      2246.34124        24.64224
G32  21002809.95725    -10483.30525      -106.87725        29.50525
R02  19914415.53725    -24470.04125      -238.40525        29.77225
R18  21678266.34824    -45319.64524      -466.70524        29.08224
R12  20858364.25525    206781.69325      1930.43325        32.26125
R01  20914465.01724   -304729.60324     -2937.31424        25.81924
R17  21526699.97625   -407228.28625     -3845.69025        33.84125
E02  26841251.58824    147755.96024      1504.12324        23.89624
E08  23499598.46724   -126739.13424     -1192.33824        29.31224
E13  24340763.04024   -264962.91124     -2425.83724        25.86624
E25  26905447.04723    -41528.49423      -414.46523        21.56023
E26  25833876.97923     50749.21223       451.70823        19.88823
> 2024 10 27 15 49 17.0003771  0 16                      
G10  20303152.52026    -90212.38126      -853.49826        36.59726
G21  23680425.78223     12940.23223        97.98523        22.36023
G23  21605538.19724   -369580.63624     -3444.03324        25.30524
G25  23423178.67124    223656.16024      2063.05124        23.81124
G28  22533011.22124    245887.93624      2245.95324        25.37624
G32  21002653.16625    -10593.28725      -110.07525        29.96925
R02  19914281.23025    -24711.13725      -242.07825        29.99925
R18  21678189.90124    -45789.69424      -472.63024        28.56324
R12  20857825.52825    208708.33125      1926.32725        31.62525
R01  20914833.46224   -307669.26524     -2937.96124        26.03624
R17  21527240.20225   -411076.16725     -3847.66825        34.00525
E02  26840786.31024    149261.22624      1503.55524        23.64724
E08  23499645.23424   -127934.22324     -1195.50824        28.84424
E13  24341044.84524   -267390.56824     -2426.59824        24.85724
E25  26905345.71723    -41943.97123      -415.13723        21.37223
E26  25833608.66523     51198.13623       451.70823        19.62123
> 2024 10 27 15 49 18.0003765  0 16                      
G10  20303136.33126    -91066.14626      -854.66226        36.96426
G21  23680230.91723     13035.84323        97.43423        21.80823
G23  21606013.06824   -373026.79524     -3447.13024        26.15824
G25  23422619.25823    225718.37223      2059.18523        22.08023
G28  22532408.93824    248133.55424      2249.07524        26.34924
G32  21002492.17725    -10703.38525      -111.21125        30.30125
R02  19914146.92325    -24953.58325      -243.99025        30.61225
R18  21678102.36224    -46261.02424      -473.13624        29.18124
R12  20857295.79525    210634.43925      1924.78025        32.29425
R01  20915228.28924   -310605.18324     -2934.17124        25.89824
R17  21527784.62525   -414924.20025     -3848.34725        34.21525
E02  26840320.43323    150765.98423      1503.48723        23.03223
E08  23499692.90124   -129128.83824     -1194.87724        29.18524
E13  24341325.45124   -269818.16124     -2427.17424        25.62024
E25  26905246.18623    -42360.09423      -415.21623        18.21223
E26  25833350.24423     51646.18823       448.78123        19.83223
> 2024 10 27 15 49 19.0003759  0 17                      
G10  20303116.84526    -91920.21326      -854.66726        36.56626
G21  23680031.25523     13130.97723        97.27323        21.15823
G23  21606480.74524   -376475.78224     -3445.46724        26.96724
G25  23422045.15623    227780.21523      2059.54423        23.05623
G28  22531810.55224    250377.48824      2247.88924        26.07524
G32  21002336.88525    -10813.98025      -111.47825        29.86725
R02  19914012.01625    -25196.32225      -243.99925        29.67325
R18  21678000.43324    -46732.00824      -470.63124        29.14924
R12  20856748.67325    212560.60625      1925.92925        31.68425
R01  20915579.04624   -313539.12424     -2930.31724        24.95224
R17  21528317.65625   -418772.23825     -3848.14425        34.07425
E02  26839855.75524    152270.87624      1503.82224        23.56424
E07  25474632.37923     88988.92423       807.04323        20.81123
E08  23499740.26824   -130323.51824     -1195.54724        29.32224
E13  24341607.85624   -272245.67324     -2427.23924        26.14424
E25  26905141.55823    -42776.25523      -415.16123        21.11723
E26  25833088.82523     52093.60923       448.78123        19.89123
> 2024 10 27 15 49 20.0003753  0 17                      
G10  20303100.05626    -92773.71026      -853.70526        36.25226
G21  23679833.09323     13224.03323        97.19523        21.17823
G23  21606967.30824   -379921.22624     -3443.45124        26.01624
G25  23421472.55223    229844.51323      2060.34623        23.32223
G28  22531203.17324    252620.91524      2239.62924        27.28124
G32  21002177.39525    -10923.63625      -109.05125        30.35525
R02  19913874.71125    -25437.97825      -241.62525        30.50525
R18  21677906.59824    -47203.32724      -469.67324        28.84224
R12  20856214.44325    214486.82125      1925.99125        31.04425
R01  20915938.19724   -316474.10024     -2931.72524        25.52624
R17  21528859.68125   -422620.55825     -3848.51125        34.42225
E02  26839388.97823    153776.71223      1503.74523        22.69123
E07  25474299.90923     89796.26123       806.53623        22.12023
E08  23499791.23325   -131517.46225     -1193.75425        29.55825
E13  24341890.26024   -274673.93724     -2428.04724        26.36224
E25  26905043.22623    -43193.16023      -415.64823        21.13723
E26  25832823.20923     52540.31623       446.83023        19.61323
> 2024 10 27 15 49 21.0003746  0 17                      
G10  20303053.28926    -93627.94226      -854.64326        35.71126
G21  23679606.74923     13321.06323        96.57923        20.31223
G23  21607428.08924   -383367.76324     -3451.30924        25.09524
G25  23420870.56924    231907.87124      2059.70024        24.16524
G28  22530563.41624    254864.08024      2241.34224        26.06124
G32  21001988.52625    -11033.66025      -110.08625        30.20825
R02  19913715.82125    -25680.00525      -242.47325        30.06325
R18  21677790.57824    -47675.71224      -472.68324        28.16424
R12  20855637.64225    216412.12025      1924.61725        29.82225
R01  20916268.86824   -319407.06124     -2935.53824        25.20624
R17  21529368.72825   -426469.73325     -3849.65625        34.12825
E02  26838894.92023    155282.75523      1503.12823        23.14623
E07  25473937.16023     90602.70723       806.33423        20.82723
E08  23499810.12024   -132712.24724     -1194.99624        29.35024
E13  24342142.08624   -277102.50724     -2429.09824        25.72124
E25  26904910.41823    -43610.01123      -416.68523        20.62723
E26  25832529.71223     52987.65023       446.83023        19.42923
> 2024 10 27 15 49 22.0003740  0 16                      
G10  20303035.00126    -94483.08626      -855.03926        35.80526
G21  23679410.68523     13419.02823        94.80123        20.60123
G23  21607903.56024   -386815.48124     -3451.41524        26.13024
G25  23420294.36824    233970.74424      2060.63624        24.21624
G28  22529952.43824    257106.54124      2241.03424        26.87024
G32  21001830.83525    -11144.29825      -110.20525        29.89325
R02  19913573.42025    -25922.68525      -242.21725        30.21725
R18  21677688.64824    -48149.45924      -474.00924        28.20724
R12  20855091.12125    218336.48525      1924.75925        30.03325
R01  20916629.51924   -322348.46824     -2943.33924        25.85624
R17  21529908.95425   -430319.90625     -3850.08625        33.59725
E02  26838429.34223    156788.45423      1502.94723        22.92023
E07  25473598.69523     91408.50223       806.75623        20.32823
E08  23499856.28824   -133907.57524     -1195.00924        29.23324
E13  24342430.78624   -279532.06924     -2429.54624        25.86524
E25  26904811.18723    -44028.14923      -418.53323        21.54723
> 2024 10 27 15 49 23.0003734  0 16                      
G10  20303017.91326    -95338.19826      -854.67026        35.97726
G21  23679216.12023     13515.16723        91.70123        19.44723
G23  21608379.03024   -390262.60924     -3448.71424        25.84824
G25  23419723.56324    236033.79224      2062.27124        25.19424
G28  22529337.86424    259349.23824      2241.06724        26.79424
G32  21001675.24325    -11254.77825      -110.26925        29.62225
R02  19913431.01924    -26165.20424      -242.09424        29.49024
R18  21677585.82024    -48623.40724      -473.78624        27.91824
R12  20854551.49425    220260.55225      1924.30525        29.85725
R01  20917007.55724   -325295.97524     -2940.28024        26.44024
R17  21530453.37725   -434170.20225     -3849.80525        33.52225
E02  26837962.26523    158293.62323      1503.01323        23.00623
E07  25473262.92723     92214.51523       806.27823        18.47723
E08  23499906.35324   -135102.66224     -1194.63424        28.75024
E13  24342711.69124   -281961.37824     -2428.64624        26.45724
E25  26904707.45923    -44446.22023      -417.27823        21.97023
> 2024 10 27 15 49 24.0003728  0 16                      
G10  20303000.82526    -96193.07126      -855.19726        36.15826
G21  23679009.56323     13605.96923        91.44523        20.24723
G23  21608848.80524   -393709.23824     -3446.55624        26.99324
G25  23419144.06424    238100.57424      2064.47724        24.95624
G28  22528741.27724    261592.61424      2245.03124        26.91624
G32  21001513.05524    -11364.65624      -109.74824        29.30124
R02  19913302.10824    -26407.12424      -241.96724        29.40824
R18  21677498.28024    -49097.46024      -474.06624        28.16324
R12  20853999.57725    222184.82725      1924.17325        29.62125
R01  20917364.01024   -328241.56424     -2934.73724        26.12924
R17  21530987.90725   -438020.26225     -3849.64625        33.63725
E02  26837495.18924    159797.74924      1503.32924        23.92624
E07  25472934.35423     93021.91623       806.24523        18.49123
E08  23499953.72124   -136296.93924     -1193.55324        28.66424
E13  24342990.19924   -284390.53924     -2429.25424        26.96024
E25  26904606.42923    -44863.66123      -417.35323        21.59523
> 2024 10 27 15 49 25.0003722  0 16                      
G10  20302984.33626    -97048.39526      -855.86626        36.66626
G21  23678812.29923     13691.37923        91.33823        19.11123
G23  21609319.18024   -397156.45424     -3445.39724        26.61024
G25  23418575.05824    240165.77124      2062.47324        24.82624
G28  22528132.69824    263835.35824      2245.32724        26.95524
G32  21001358.36225    -11475.53925      -111.36025        29.80725
R02  19913179.49324    -26649.42724      -242.69324        29.46924
R18  21677397.55024    -49572.47924      -475.64124        28.69024
R12  20853466.84524    224108.42624      1923.48024        29.24124
R01  20917739.35024   -331185.87524     -2935.89324        26.28424
R17  21531520.03925   -441871.13325     -3851.30625        33.48625
E02  26837028.71223    161301.15223      1503.01423        23.49523
E07  25472598.88723     93828.51923       806.12023        18.21223
E08  23500000.78825   -137491.69125     -1194.94125        29.96125
E13  24343273.20324   -286820.12024     -2429.46224        27.28424
E25  26904506.89723    -45281.46623      -418.77923        20.43723
> 2024 10 27 15 49 26.0003716  0 16                      
G10  20302966.34926    -97904.47626      -856.61526        36.86626
G21  23678609.93923     13782.30023        91.77523        19.56623
G23  21609795.55024   -400604.21324     -3448.34524        27.05124
G25  23418008.45024    242228.70324      2061.80124        25.68024
G28  22527534.91224    266077.53924      2241.53624        27.52424
G32  21001195.57525    -11585.64625      -111.11025        30.13125
R02  19913026.59924    -26892.18324      -243.33324        29.20624
R18  21677312.40924    -50048.68624      -477.73124        28.44424
R12  20852931.11624    226031.15824      1922.56224        28.76124
R01  20918130.87924   -334125.32224     -2934.65124        26.80624
R17  21532058.76625   -445722.73025     -3852.12125        33.56725
E02  26836563.43424    162804.24824      1502.79324        23.96324
E07  25472270.01423     94634.98423       806.79123        18.78323
E08  23500048.75525   -138686.71825     -1195.71025        29.86225
E13  24343560.10424   -289250.39624     -2430.92824        27.49424
E25  26904406.46723    -45700.46923      -419.30923        22.21623
> 2024 10 27 15 49 27.0003710  0 16                      
G10  20302949.86026    -98761.91426      -857.71426        37.00526
G21  23678405.18123     13879.74123        94.58823        17.82823
G23  21610273.41924   -404053.16624     -3452.59924        26.89224
G25  23417435.84724    244290.59624      2064.01524        25.97024
G28  22526925.43424    268318.72924      2241.38324        27.89924
G32  21001038.48425    -11697.54725      -112.11225        29.97625
R02  19912877.90124    -27136.13624      -242.49324        29.05924
R18  21677226.96824    -50526.47024      -477.77324        28.35524
R12  20852406.77924    227952.30124      1920.80524        28.61924
R01  20918482.23624   -337064.15124     -2938.58424        26.78824
R17  21532604.68825   -449575.74525     -3852.77725        33.65825
E02  26836098.75524    164306.22124      1501.47324        23.78424
E07  25471938.14423     95442.42423       806.82923        19.16623
E08  23500096.42225   -139882.71425     -1195.72025        30.81525
E13  24343843.10824   -291681.94624     -2431.95724        27.48424
E25  26904304.83723    -46120.59923      -420.75323        22.61323
> 2024 10 27 15 49 28.0003703  0 16                      
G10  20302905.19126    -99619.20326      -856.94126        36.29826
G21  23678167.44623     13936.97523        94.51323        18.74023
G23  21610713.51424   -407501.98724     -3450.86724        25.74124
G25  23416836.56124    246352.74224      2061.92024        25.89224
G28  22526285.67724    270559.92224      2240.92624        28.85124
G32  21000847.81625    -11809.22025      -111.80925        31.21125
R02  19912694.72824    -27379.85324      -243.11824        27.69524
R18  21677102.25424    -51004.69524      -477.99824        28.30124
R12  20851831.77724    229873.54924      1921.30224        28.68024
R01  20918796.71824   -340002.71024     -2941.30524        25.13124
R17  21533109.23925   -453428.97125     -3853.65425        33.89725
E02  26835603.19823    165808.50123      1502.42123        23.26323
E07  25471571.19823     96248.27623       806.82923        19.44623
E08  23500114.40925   -141078.39025     -1195.13025        30.65525
E13  24344095.23424   -294113.38924     -2431.64724        27.81524
E25  26904177.12623    -46540.40123      -419.52723        22.55623
> 2024 10 27 15 49 29.0003697  0 16                      
G10  20302887.20426   -100475.01126      -856.01826        36.48226
G21  23677985.77223     14032.40823        94.58123        20.73623
G23  21611195.88024   -410950.64524     -3447.26324        27.86524
G25  23416261.26024    248416.57324      2063.14624        27.47324
G28  22525676.19925    272804.02225      2242.43925        32.04525
G32  21000690.42525    -11920.07025      -111.61925        33.72325
R02  19912595.19724    -27622.57024      -246.15924        27.69224
R18  21676993.73024    -51482.79924      -479.38524        28.00324
R12  20851297.84724    231797.62124      1924.65224        28.96924
R01  20919192.74424   -342943.24124     -2942.15124        23.78524
R17  21533645.86725   -457281.17225     -3853.11825        32.95825
E02  26835136.42224    167312.16724      1503.83624        25.15524
E07  25471239.32824     97053.71724       805.25324        28.24124
E08  23500161.47724   -142273.51024     -1195.98424        28.79024
E13  24344382.43525   -296542.95725     -2431.40225        32.43525
E25  26904074.89723    -46959.57923      -419.39023        20.83723
> 2024 10 27 15 49 30.0003691  0 19                      
G10  20302868.61726   -101331.30926      -855.74426        36.90026
G12  23657058.45925     75463.41725       596.09125        31.83225
G21  23677790.90624     14124.11924        90.59824        25.70524
G23  21611671.05125   -414398.62125     -3446.49425        29.67725
G25  23415691.35424    250482.70024      2062.78224        26.32324
G28  22525070.01926    275050.76226      2243.26426        37.58426
G32  21000529.13626    -12032.16826      -112.17026        38.17226
R02  19912470.48424    -27866.89724      -247.36024        28.38124
R18  21676917.58225    -51962.40825      -480.91125        32.61925
R12  20850765.11625    233725.19625      1924.48225        30.68125
R11  21309614.86124   -292400.96524     -2480.13924        27.97024
R01  20919564.78724   -345883.05424     -2941.45724        27.88124
R17  21534178.89825   -461133.82825     -3851.94925        33.98025
E02  26834671.74323    168816.01223      1502.94923        23.47623
E03  25769167.07724   -333745.52124     -2979.38324        26.35724
E07  25470891.86825     97860.51925       806.25525        32.19425
E08  23500204.94725   -143469.34425     -1195.84925        33.94425
E13  24344660.64226   -298974.19526     -2431.08026        38.70826
E25  26903988.85625    -47380.30525      -420.65225        31.97425
